{"resourceType":"Location","id":"1","identifier":[{"value":"4370FA5C-2C04-4D4F-BC1C-98986AE93D40"},{"value":"1377515538"}],"name":"200 LIQUORS","address":{"line":["204 E 47TH ST"],"city":"GRAND BOULEVARD","state":"IL","postalCode":"60653"},"position":{"latitude":41.8094238941,"longitude":-87.620951802},"status":"active","meta":{"lastUpdated":"2023-03-24T19:59:24.248Z"}}
{"resourceType":"Location","id":"2","identifier":[{"value":"B08276E2-4D72-4387-8B07-D235F21E79EC"},{"value":"1377515538"}],"name":"3600 COMMISSARY","address":{"line":["3600 N LAKE SHORE DR"],"city":"LAKE VIEW","state":"IL","postalCode":"60613"},"position":{"latitude":41.9486836744,"longitude":-87.6436497585},"status":"active","meta":{"lastUpdated":"2023-03-24T19:59:24.287Z"}}
{"resourceType":"Location","id":"3","identifier":[{"value":"BD2E4070-7B9E-4A12-8089-FAF91B0A764F"},{"value":"1377515538"}],"name":"4343 PETES FRESH MARKET","address":{"line":["4343 S PULASKI RD"],"city":"ARCHER HEIGHTS","state":"IL","postalCode":"60632"},"position":{"latitude":41.8139143113,"longitude":-87.7236649419},"status":"active","meta":{"lastUpdated":"2023-03-24T19:59:24.288Z"}}
{"resourceType":"Location","id":"4","identifier":[{"value":"9C3A612A-B7F5-493D-B929-B07B015FB899"},{"value":"1377515538"}],"name":"4700 PETE'S FRESH MARKET","address":{"line":["4700 S KEDZIE AVE"],"city":"BRIGHTON PARK","state":"IL","postalCode":"60632"},"position":{"latitude":41.8080472717,"longitude":-87.7041188223},"status":"active","meta":{"lastUpdated":"2023-03-24T19:59:24.288Z"}}
{"resourceType":"Location","id":"5","identifier":[{"value":"11D9108B-E3A8-47A6-BA28-F51004E8198D"},{"value":"1377515538"}],"name":"5659 W. DIVERSEY","address":{"line":["5659 W DIVERSEY AVE"],"city":"BELMONT CRAGIN","state":"IL","postalCode":"60639"},"position":{"latitude":41.9311354035,"longitude":-87.7686121306},"status":"active","meta":{"lastUpdated":"2023-03-24T19:59:24.313Z"}}
{"resourceType":"Location","id":"6","identifier":[{"value":"0992F6CE-52E7-4F7F-ACD9-C48604696072"},{"value":"1377515538"}],"name":"7400 S HALSTED FOOD AND LIQUORS, INC.","address":{"line":["7400 S HALSTED ST"],"city":"ENGLEWOOD","state":"IL","postalCode":"60621"},"position":{"latitude":41.7596745819,"longitude":-87.6444202389},"status":"active","meta":{"lastUpdated":"2023-03-24T19:59:24.313Z"}}
{"resourceType":"Location","id":"7","identifier":[{"value":"72D3D00B-71C1-4B80-814D-1F6FE7FE08C7"},{"value":"1377515538"}],"name":"79 FOOD BASKET","address":{"line":["1351 W 79TH ST"],"city":"AUBURN GRESHAM","state":"IL","postalCode":"60620"},"position":{"latitude":41.7503211206,"longitude":-87.6581890529},"status":"active","meta":{"lastUpdated":"2023-03-24T19:59:24.337Z"}}
{"resourceType":"Location","id":"8","identifier":[{"value":"505AB4DE-0B5C-4BEF-B182-8D5B879EF61E"},{"value":"1377515538"}],"name":"A & B FOOD MARKET INC","address":{"line":["5057 W DIVISION ST"],"city":"AUSTIN","state":"IL","postalCode":"60651"},"position":{"latitude":41.9021664421,"longitude":-87.7531823487},"status":"active","meta":{"lastUpdated":"2023-03-24T19:59:24.337Z"}}
{"resourceType":"Location","id":"9","identifier":[{"value":"CC260B36-8CB6-4758-92E0-9ABD1B9BBCE5"},{"value":"1377515538"}],"name":"A & G LIQUORS","address":{"line":["6945 S STATE ST"],"city":"GREATER GRAND CROSSING","state":"IL","postalCode":"60637"},"position":{"latitude":41.7678312792,"longitude":-87.6247659397},"status":"active","meta":{"lastUpdated":"2023-03-24T19:59:24.338Z"}}
{"resourceType":"Location","id":"10","identifier":[{"value":"4EE4B15E-431F-475A-8D11-12D8E82AD5C3"},{"value":"1377515538"}],"name":"A & R FOOD MART","address":{"line":["5952 W GRAND AVE"],"city":"BELMONT CRAGIN","state":"IL","postalCode":"60639"},"position":{"latitude":41.9205964582,"longitude":-87.7751926809},"status":"active","meta":{"lastUpdated":"2023-03-24T19:59:24.361Z"}}
{"resourceType":"Location","id":"11","identifier":[{"value":"48CD2FBA-D9C5-48B7-89BE-E609A2316406"},{"value":"1377515538"}],"name":"A & R FOOD MART","address":{"line":["5952 W GRAND AVE"],"city":"BELMONT CRAGIN","state":"IL","postalCode":"60639"},"position":{"latitude":41.9205964582,"longitude":-87.7751926809},"status":"active","meta":{"lastUpdated":"2023-03-24T19:59:24.362Z"}}
{"resourceType":"Location","id":"12","identifier":[{"value":"CBE97EAF-01E4-43E9-A2EF-D6011EBE4800"},{"value":"1377515538"}],"name":"AARAY GROCERY","address":{"line":["2601 N HALSTED ST"],"city":"LINCOLN PARK","state":"IL","postalCode":"60614"},"position":{"latitude":41.929209817,"longitude":-87.648746265},"status":"active","meta":{"lastUpdated":"2023-03-24T19:59:24.438Z"}}
{"resourceType":"Location","id":"13","identifier":[{"value":"C9E29331-4AA6-468E-B243-AE29013DBE3C"},{"value":"1377515538"}],"name":"ADA FOODS","address":{"line":["1281 W 71ST ST"],"city":"WEST ENGLEWOOD","state":"IL","postalCode":"60636"},"position":{"latitude":41.7648941814,"longitude":-87.6573078048},"status":"active","meta":{"lastUpdated":"2023-03-24T19:59:24.446Z"}}
{"resourceType":"Location","id":"14","identifier":[{"value":"22AB748A-7FE8-4EB6-BCC0-28C25448A301"},{"value":"1377515538"}],"name":"ADAMS FOOD MART","address":{"line":["559 N LARAMIE AVE"],"city":"AUSTIN","state":"IL","postalCode":"60644"},"position":{"latitude":41.8910335471,"longitude":-87.7553096457},"status":"active","meta":{"lastUpdated":"2023-03-24T19:59:24.460Z"}}
{"resourceType":"Location","id":"15","identifier":[{"value":"51B247D6-4682-4911-B903-1C78DF75806D"},{"value":"1377515538"}],"name":"AL BAYAN GROCERY INC.","address":{"line":["3134 N NARRAGANSETT AVE"],"city":"BELMONT CRAGIN","state":"IL","postalCode":"60634"},"position":{"latitude":41.9375646502,"longitude":-87.7860543686},"status":"active","meta":{"lastUpdated":"2023-03-24T19:59:24.473Z"}}
{"resourceType":"Location","id":"16","identifier":[{"value":"2C04BD1C-173D-42CD-AE5A-D95AE2E0207C"},{"value":"1377515538"}],"name":"ALDI","address":{"line":["6221 N BROADWAY"],"city":"EDGEWATER","state":"IL","postalCode":"60660"},"position":{"latitude":41.9952114602,"longitude":-87.6602779929},"status":"active","meta":{"lastUpdated":"2023-03-24T19:59:24.488Z"}}
{"resourceType":"Location","id":"17","identifier":[{"value":"5C90CFEF-5687-4634-AB33-8495546C1FF9"},{"value":"1377515538"}],"name":"ALDI","address":{"line":["6621 S COTTAGE GROVE AVE"],"city":"WOODLAWN","state":"IL","postalCode":"60637"},"position":{"latitude":41.7743058812,"longitude":-87.6056480253},"status":"active","meta":{"lastUpdated":"2023-03-24T19:59:24.486Z"}}
{"resourceType":"Location","id":"18","identifier":[{"value":"D39204DE-FFFC-4405-B234-C4224D33B57A"},{"value":"1377515538"}],"name":"ALDI #28","address":{"line":["4934 S KEDZIE AVE"],"city":"BRIGHTON PARK","state":"IL","postalCode":"60632"},"position":{"latitude":41.8034457131,"longitude":-87.7039862718},"status":"active","meta":{"lastUpdated":"2023-03-24T19:59:24.550Z"}}
{"resourceType":"Location","id":"19","identifier":[{"value":"625990E6-C305-446B-A524-9A3AD89982A5"},{"value":"1377515538"}],"name":"ALDI #30","address":{"line":["3030 S KEDZIE AVE"],"city":"SOUTH LAWNDALE","state":"IL","postalCode":"60623"},"position":{"latitude":41.8381141517,"longitude":-87.7049944648},"status":"active","meta":{"lastUpdated":"2023-03-24T19:59:24.556Z"}}
{"resourceType":"Location","id":"20","identifier":[{"value":"42660694-99D0-495F-8A69-64279D83A7AB"},{"value":"1377515538"}],"name":"ALDI #32","address":{"line":["1840 N CLYBOURN AVE"],"city":"LINCOLN PARK","state":"IL","postalCode":"60614"},"position":{"latitude":41.9144237141,"longitude":-87.654627843},"status":"active","meta":{"lastUpdated":"2023-03-24T19:59:24.572Z"}}
{"resourceType":"Location","id":"21","identifier":[{"value":"5C61F3D3-C161-4AE7-B7B7-85B544D18DDD"},{"value":"1377515538"}],"name":"ALDI #70","address":{"line":["7627 S ASHLAND AVE"],"city":"AUBURN GRESHAM","state":"IL","postalCode":"60620"},"position":{"latitude":41.7549909175,"longitude":-87.6634041558},"status":"active","meta":{"lastUpdated":"2023-03-24T19:59:24.596Z"}}
{"resourceType":"Location","id":"22","identifier":[{"value":"D10455D0-C932-4295-A960-1338C9FF8A48"},{"value":"1377515538"}],"name":"ALDI #79","address":{"line":["7800 S SOUTH CHICAGO AVE"],"city":"AVALON PARK","state":"IL","postalCode":"60619"},"position":{"latitude":41.7527456405,"longitude":-87.5875234853},"status":"active","meta":{"lastUpdated":"2023-03-24T19:59:24.599Z"}}
{"resourceType":"Location","id":"23","identifier":[{"value":"01065701-F83F-4235-988A-772AE31D257D"},{"value":"1377515538"}],"name":"ALDI FOODS #91","address":{"line":["3835 W MADISON ST"],"city":"WEST GARFIELD PARK","state":"IL","postalCode":"60624"},"position":{"latitude":41.8806594115,"longitude":-87.7221936689},"status":"active","meta":{"lastUpdated":"2023-03-24T19:59:24.646Z"}}
{"resourceType":"Location","id":"24","identifier":[{"value":"7AEA791E-CFAA-4759-8582-BD24F3EE14DA"},{"value":"1377515538"}],"name":"ALDI FOODS -STORE #04","address":{"line":["800 N KEDZIE AVE"],"city":"HUMBOLDT PARK","state":"IL","postalCode":"60651"},"position":{"latitude":41.8956153135,"longitude":-87.7067053251},"status":"active","meta":{"lastUpdated":"2023-03-24T19:59:24.664Z"}}
{"resourceType":"Location","id":"25","identifier":[{"value":"ABAE5374-842E-4527-80C1-960B10864EC4"},{"value":"1377515538"}],"name":"ALDI FOODS STORE #2","address":{"line":["4645 W DIVERSEY AVE"],"city":"HERMOSA","state":"IL","postalCode":"60639"},"position":{"latitude":41.9314609382,"longitude":-87.743717307},"status":"active","meta":{"lastUpdated":"2023-03-24T19:59:24.681Z"}}
{"resourceType":"Location","id":"26","identifier":[{"value":"A4740F5B-5674-40FF-BB95-28D74EB5D3B1"},{"value":"1377515538"}],"name":"ALDI FOODS STORE #26","address":{"line":["2600 N CLYBOURN AVE"],"city":"LINCOLN PARK","state":"IL","postalCode":"60614"},"position":{"latitude":41.9286950012,"longitude":-87.6741950831},"status":"active","meta":{"lastUpdated":"2023-03-24T19:59:24.692Z"}}
{"resourceType":"Location","id":"27","identifier":[{"value":"9E572701-A4AE-43D7-9D8E-06E8BCB1095A"},{"value":"1377515538"}],"name":"ALDI FOODS STORE #30","address":{"line":["4030 W WRIGHTWOOD AVE"],"city":"LOGAN SQUARE","state":"IL","postalCode":"60639"},"position":{"latitude":41.9282078544,"longitude":-87.728158558},"status":"active","meta":{"lastUpdated":"2023-03-24T19:59:24.706Z"}}
{"resourceType":"Location","id":"28","identifier":[{"value":"7C56E7AE-82A4-4EE3-9A68-F41C226C2B86"},{"value":"1377515538"}],"name":"ALDI FOODS STORE #90B","address":{"line":["2828 N CENTRAL AVE"],"city":"BELMONT CRAGIN","state":"IL","postalCode":"60634"},"position":{"latitude":41.9321576791,"longitude":-87.7664245988},"status":"active","meta":{"lastUpdated":"2023-03-24T19:59:24.728Z"}}
{"resourceType":"Location","id":"29","identifier":[{"value":"71D5A56F-CB47-401B-B101-1ABD3EB17B54"},{"value":"1377515538"}],"name":"ALDI FOODS-STORE #27","address":{"line":["3363 N MILWAUKEE AVE"],"city":"IRVING PARK","state":"IL","postalCode":"60641"},"position":{"latitude":41.9423835134,"longitude":-87.7290108595},"status":"active","meta":{"lastUpdated":"2023-03-24T19:59:24.731Z"}}
{"resourceType":"Location","id":"30","identifier":[{"value":"B9115B6E-78C1-42D6-91E5-A3558BE708E6"},{"value":"1377515538"}],"name":"ALDI INC # 62","address":{"line":["6220 N CALIFORNIA AVE"],"city":"WEST RIDGE","state":"IL","postalCode":"60659"},"position":{"latitude":41.9946209588,"longitude":-87.6996868624},"status":"active","meta":{"lastUpdated":"2023-03-24T19:59:24.750Z"}}
{"resourceType":"Location","id":"31","identifier":[{"value":"192F44B3-DF63-413C-A9CF-9E74819DEFA0"},{"value":"1377515538"}],"name":"ALDI INC #06","address":{"line":["5001 N PULASKI RD"],"city":"ALBANY PARK","state":"IL","postalCode":"60630"},"position":{"latitude":41.9719812207,"longitude":-87.7279868979},"status":"active","meta":{"lastUpdated":"2023-03-24T19:59:24.771Z"}}
{"resourceType":"Location","id":"32","identifier":[{"value":"F4173A5B-90D4-4191-8CB9-32371B2277BF"},{"value":"1377515538"}],"name":"ALDI INC #10","address":{"line":["4501 S PULASKI RD"],"city":"ARCHER HEIGHTS","state":"IL","postalCode":"60632"},"position":{"latitude":41.8114515422,"longitude":-87.7235746544},"status":"active","meta":{"lastUpdated":"2023-03-24T19:59:24.773Z"}}
{"resourceType":"Location","id":"33","identifier":[{"value":"0F1606F4-7BD4-46DE-95AA-2EA0D18E1C92"},{"value":"1377515538"}],"name":"ALDI INC #53","address":{"line":["5775 S ARCHER AVE"],"city":"GARFIELD RIDGE","state":"IL","postalCode":"60638"},"position":{"latitude":41.7963804895,"longitude":-87.7573475722},"status":"active","meta":{"lastUpdated":"2023-03-24T19:59:24.778Z"}}
{"resourceType":"Location","id":"34","identifier":[{"value":"93209F6D-AB1D-4B95-8466-CFADF692385E"},{"value":"1377515538"}],"name":"ALDI INC #58","address":{"line":["2431 W MONTROSE AVE"],"city":"NORTH CENTER","state":"IL","postalCode":"60618"},"position":{"latitude":41.9611940986,"longitude":-87.6899669704},"status":"active","meta":{"lastUpdated":"2023-03-24T19:59:24.821Z"}}
{"resourceType":"Location","id":"35","identifier":[{"value":"97075CF9-DE01-42B8-8E18-8F5FAC154E4F"},{"value":"1377515538"}],"name":"ALDI INC #64","address":{"line":["1767 N MILWAUKEE AVE"],"city":"WEST TOWN","state":"IL","postalCode":"60647"},"position":{"latitude":41.91358779,"longitude":-87.6822028354},"status":"active","meta":{"lastUpdated":"2023-03-24T19:59:24.842Z"}}
{"resourceType":"Location","id":"36","identifier":[{"value":"31013BE3-C6FC-4CDF-96DA-D532280A49AD"},{"value":"1377515538"}],"name":"ALDI INC #83","address":{"line":["8333 S CICERO AVE"],"city":"ASHBURN","state":"IL","postalCode":"60652"},"position":{"latitude":41.7409110654,"longitude":-87.7409228594},"status":"active","meta":{"lastUpdated":"2023-03-24T19:59:24.843Z"}}
{"resourceType":"Location","id":"37","identifier":[{"value":"9A09B304-676A-4049-A302-90C6C8EAC1C3"},{"value":"1377515538"}],"name":"ALDI INC #92","address":{"line":["620 W 63RD ST"],"city":"ENGLEWOOD","state":"IL","postalCode":"60621"},"position":{"latitude":41.7799200473,"longitude":-87.6409255107},"status":"active","meta":{"lastUpdated":"2023-03-24T19:59:24.885Z"}}
{"resourceType":"Location","id":"38","identifier":[{"value":"75A407FD-2CF7-4C84-9FC8-CBF2ED8BCCE8"},{"value":"1377515538"}],"name":"ALDI INC STORE #16","address":{"line":["1246 E 87TH ST"],"city":"AVALON PARK","state":"IL","postalCode":"60619"},"position":{"latitude":41.736915346,"longitude":-87.5936566218},"status":"active","meta":{"lastUpdated":"2023-03-24T19:59:24.886Z"}}
{"resourceType":"Location","id":"39","identifier":[{"value":"40C6FC23-BD1D-4CB3-83F9-6D2DA28A229A"},{"value":"1377515538"}],"name":"ALDI INC STORE #62","address":{"line":["1739 W CERMAK RD"],"city":"LOWER WEST SIDE","state":"IL","postalCode":"60608"},"position":{"latitude":41.8521511995,"longitude":-87.6700746019},"status":"active","meta":{"lastUpdated":"2023-03-24T19:59:24.892Z"}}
{"resourceType":"Location","id":"40","identifier":[{"value":"8ED3A20B-7176-4211-99B3-8DBED7243CCF"},{"value":"1377515538"}],"name":"ALDI INC STORE #90","address":{"line":["9017 S HALSTED ST"],"city":"AUBURN GRESHAM","state":"IL","postalCode":"60620"},"position":{"latitude":41.7302972736,"longitude":-87.6433090924},"status":"active","meta":{"lastUpdated":"2023-03-24T19:59:24.910Z"}}
{"resourceType":"Location","id":"41","identifier":[{"value":"FE649D48-E671-4FDE-B0AC-F58E7245B46B"},{"value":"1377515538"}],"name":"ALDI INC STORE #95","address":{"line":["2333 E 95TH ST"],"city":"SOUTH DEERING","state":"IL","postalCode":"60617"},"position":{"latitude":41.722466242,"longitude":-87.5666730521},"status":"active","meta":{"lastUpdated":"2023-03-24T19:59:24.928Z"}}
{"resourceType":"Location","id":"42","identifier":[{"value":"68854B92-7ADE-45BC-9437-A12339B4A6B9"},{"value":"1377515538"}],"name":"ALDI INC STORE 14","address":{"line":["5629 W FILLMORE ST"],"city":"AUSTIN","state":"IL","postalCode":"60644"},"position":{"latitude":41.8673156479,"longitude":-87.765597943},"status":"active","meta":{"lastUpdated":"2023-03-24T19:59:24.929Z"}}
{"resourceType":"Location","id":"43","identifier":[{"value":"5F307C0D-E2D2-4268-9081-4C477533CA62"},{"value":"1377515538"}],"name":"ALDI INC. #96","address":{"line":["821 W 115TH ST"],"city":"WEST PULLMAN","state":"IL","postalCode":"60643"},"position":{"latitude":41.6849606404,"longitude":-87.6430223096},"status":"active","meta":{"lastUpdated":"2023-03-24T19:59:24.963Z"}}
{"resourceType":"Location","id":"44","identifier":[{"value":"7CC9111A-4B54-45AC-8FE1-07D19BD03154"},{"value":"1377515538"}],"name":"ALDI INC.#94","address":{"line":["6025 S WESTERN AVE"],"city":"CHICAGO LAWN","state":"IL","postalCode":"60636"},"position":{"latitude":41.7839658423,"longitude":-87.6836233778},"status":"active","meta":{"lastUpdated":"2023-03-24T19:59:24.967Z"}}
{"resourceType":"Location","id":"45","identifier":[{"value":"EAD3F435-AF8A-48FB-9C5F-B11597C02607"},{"value":"1377515538"}],"name":"ALDI'S","address":{"line":["6520 W FULLERTON AVE"],"city":"BELMONT CRAGIN","state":"IL","postalCode":"60707"},"position":{"latitude":41.9237604017,"longitude":-87.7887477626},"status":"active","meta":{"lastUpdated":"2023-03-24T19:59:24.968Z"}}
{"resourceType":"Location","id":"46","identifier":[{"value":"FF13EA80-0335-4277-BC70-5430193ABBDE"},{"value":"1377515538"}],"name":"ALDI'S","address":{"line":["4500 N BROADWAY"],"city":"UPTOWN","state":"IL","postalCode":"60640"},"position":{"latitude":41.9637889643,"longitude":-87.6566064924},"status":"active","meta":{"lastUpdated":"2023-03-24T19:59:24.983Z"}}
{"resourceType":"Location","id":"47","identifier":[{"value":"0C7EFC31-7B4F-4731-B393-CAC523D814E5"},{"value":"1377515538"}],"name":"ALDI'S # 26","address":{"line":["10532 S INDIANAPOLIS AVE"],"city":"EAST SIDE","state":"IL","postalCode":"60617"},"position":{"latitude":41.7036623609,"longitude":-87.5257124268},"status":"active","meta":{"lastUpdated":"2023-03-24T19:59:25.000Z"}}
{"resourceType":"Location","id":"48","identifier":[{"value":"33A870D4-94FA-4ECB-A3DF-621722C08D74"},{"value":"1377515538"}],"name":"ALDI'S #08","address":{"line":["7333 S STATE ST"],"city":"GREATER GRAND CROSSING","state":"IL","postalCode":"60619"},"position":{"latitude":41.760880872,"longitude":-87.6246657846},"status":"active","meta":{"lastUpdated":"2023-03-24T19:59:25.001Z"}}
{"resourceType":"Location","id":"49","identifier":[{"value":"7622B8E9-1395-4A65-AC7C-1013A5A232C6"},{"value":"1377515538"}],"name":"ALDI'S #47","address":{"line":["1508 W 47TH ST"],"city":"NEW CITY","state":"IL","postalCode":"60609"},"position":{"latitude":41.8087413884,"longitude":-87.6629116285},"status":"active","meta":{"lastUpdated":"2023-03-24T19:59:25.036Z"}}
{"resourceType":"Location","id":"50","identifier":[{"value":"DE1A991C-FDE4-46A0-BFBF-816DA089AA26"},{"value":"1377515538"}],"name":"ALDI'S #93","address":{"line":["7545 S WESTERN AVE"],"city":"ASHBURN","state":"IL","postalCode":"60620"},"position":{"latitude":41.756035091,"longitude":-87.6828583216},"status":"active","meta":{"lastUpdated":"2023-03-24T19:59:25.036Z"}}
{"resourceType":"Location","id":"51","identifier":[{"value":"83F947E1-1E59-436F-99FA-CDB142808C1C"},{"value":"1377515538"}],"name":"ALDI'S FOODS BELMONT","address":{"line":["3320 W BELMONT AVE"],"city":"AVONDALE","state":"IL","postalCode":"60618"},"position":{"latitude":41.9394051879,"longitude":-87.7109005918},"status":"active","meta":{"lastUpdated":"2023-03-24T19:59:25.038Z"}}
{"resourceType":"Location","id":"52","identifier":[{"value":"D9395B4F-3CD4-4F7E-B705-59E2FEF59C94"},{"value":"1377515538"}],"name":"ALL STAR FOOD & LIQUOR","address":{"line":["2911 S ARCHER AVE"],"city":"BRIDGEPORT","state":"IL","postalCode":"60608"},"position":{"latitude":41.8414840391,"longitude":-87.6580219776},"status":"active","meta":{"lastUpdated":"2023-03-24T19:59:25.066Z"}}
{"resourceType":"Location","id":"53","identifier":[{"value":"CE4FFDAA-3B63-4C4B-A53C-DC71CBE3EA0D"},{"value":"1377515538"}],"name":"ALLA'S FOOD","address":{"line":["2024 E 93RD ST"],"city":"CALUMET HEIGHTS","state":"IL","postalCode":"60617"},"position":{"latitude":41.7262403487,"longitude":-87.5742922611},"status":"active","meta":{"lastUpdated":"2023-03-24T19:59:25.085Z"}}
{"resourceType":"Location","id":"54","identifier":[{"value":"3BA9773E-9A6B-455D-B2F9-A7AD7F6F7272"},{"value":"1377515538"}],"name":"ALMUFLIHI FOOD & LIQUOR","address":{"line":["5404 S HALSTED ST"],"city":"NEW CITY","state":"IL","postalCode":"60609"},"position":{"latitude":41.7958707987,"longitude":-87.6453441182},"status":"active","meta":{"lastUpdated":"2023-03-24T19:59:25.092Z"}}
{"resourceType":"Location","id":"55","identifier":[{"value":"AB325CBD-49ED-40E8-BF5D-1D7641605290"},{"value":"1377515538"}],"name":"AM-PM FOOD MART & CELLULAR","address":{"line":["1924 E 87TH ST"],"city":"AVALON PARK","state":"IL","postalCode":"60617"},"position":{"latitude":41.7371462539,"longitude":-87.5770809934},"status":"active","meta":{"lastUpdated":"2023-03-24T19:59:25.128Z"}}
{"resourceType":"Location","id":"56","identifier":[{"value":"C85519F4-A6E0-449D-9999-2336B10D8D06"},{"value":"1377515538"}],"name":"ANAR INC","address":{"line":["935 E 79TH ST"],"city":"CHATHAM","state":"IL","postalCode":"60619"},"position":{"latitude":41.7512179339,"longitude":-87.6014014102},"status":"active","meta":{"lastUpdated":"2023-03-24T19:59:25.129Z"}}
{"resourceType":"Location","id":"57","identifier":[{"value":"C613150A-FBFD-4C40-8459-A6B1452F107E"},{"value":"1377515538"}],"name":"ANDYS FRUIT RANCH","address":{"line":["4733 N KEDZIE AVE"],"city":"ALBANY PARK","state":"IL","postalCode":"60625"},"position":{"latitude":41.9676291597,"longitude":-87.7083036873},"status":"active","meta":{"lastUpdated":"2023-03-24T19:59:25.158Z"}}
{"resourceType":"Location","id":"58","identifier":[{"value":"0A1A37C3-F675-4D95-94B3-0500CEE80492"},{"value":"1377515538"}],"name":"ARISTA FOODS","address":{"line":["112 N MAY ST"],"city":"NEAR WEST SIDE","state":"IL","postalCode":"60607"},"position":{"latitude":41.8834021216,"longitude":-87.6557252931},"status":"active","meta":{"lastUpdated":"2023-03-24T19:59:25.168Z"}}
{"resourceType":"Location","id":"59","identifier":[{"value":"499FD269-B0F7-4463-B6BE-1E5C0D53BDAF"},{"value":"1377515538"}],"name":"ARMITAGE PRODUCE INC","address":{"line":["2007 N KIMBALL AVE"],"city":"LOGAN SQUARE","state":"IL","postalCode":"60647"},"position":{"latitude":41.9175624189,"longitude":-87.7117551087},"status":"active","meta":{"lastUpdated":"2023-03-24T19:59:25.187Z"}}
{"resourceType":"Location","id":"60","identifier":[{"value":"5AA1B33C-0EA7-4975-BB23-E4ECA29C9440"},{"value":"1377515538"}],"name":"AROUND THE CLOCK","address":{"line":["1605 W HOWARD ST"],"city":"ROGERS PARK","state":"IL","postalCode":"60626"},"position":{"latitude":42.0192651821,"longitude":-87.6715720734},"status":"active","meta":{"lastUpdated":"2023-03-24T19:59:25.195Z"}}
{"resourceType":"Location","id":"61","identifier":[{"value":"92BA7371-34F5-4E19-AFBD-EA6F38E42E41"},{"value":"1377515538"}],"name":"ASHLAND FOOD AND LIQUORS","address":{"line":["1554 W 95TH ST"],"city":"WASHINGTON HEIGHTS","state":"IL","postalCode":"60643"},"position":{"latitude":41.7213269867,"longitude":-87.6625336585},"status":"active","meta":{"lastUpdated":"2023-03-24T19:59:25.221Z"}}
{"resourceType":"Location","id":"62","identifier":[{"value":"C53BF068-35D2-490C-ACB5-780E38B9A573"},{"value":"1377515538"}],"name":"ATHENS GROCERY","address":{"line":["324 S HALSTED ST"],"city":"NEAR WEST SIDE","state":"IL","postalCode":"60661"},"position":{"latitude":41.8771621281,"longitude":-87.6473642897},"status":"active","meta":{"lastUpdated":"2023-03-24T19:59:25.229Z"}}
{"resourceType":"Location","id":"63","identifier":[{"value":"48E4D183-0734-4201-9B8A-259A3EF35AFC"},{"value":"1377515538"}],"name":"AVENUE FOOD MAR INC","address":{"line":["6850 W BELMONT AVE"],"city":"DUNNING","state":"IL","postalCode":"60634"},"position":{"latitude":41.938237376,"longitude":-87.7977603483},"status":"active","meta":{"lastUpdated":"2023-03-24T19:59:25.253Z"}}
{"resourceType":"Location","id":"64","identifier":[{"value":"D3EC3E9A-EB23-4853-945D-0EB8685C2D14"},{"value":"1377515538"}],"name":"AWAMI BAZAAR & ZABIHA MEAT","address":{"line":["2340 W DEVON AVE"],"city":"WEST RIDGE","state":"IL","postalCode":"60659"},"position":{"latitude":41.9978536894,"longitude":-87.6890642657},"status":"active","meta":{"lastUpdated":"2023-03-24T19:59:25.271Z"}}
{"resourceType":"Location","id":"65","identifier":[{"value":"21237697-2A9B-431E-9E07-EA1D4A798B31"},{"value":"1377515538"}],"name":"B & H FOOD & GROCERY","address":{"line":["713 S ALBANY AVE"],"city":"EAST GARFIELD PARK","state":"IL","postalCode":"60612"},"position":{"latitude":41.872350043,"longitude":-87.7032726418},"status":"active","meta":{"lastUpdated":"2023-03-24T19:59:25.298Z"}}
{"resourceType":"Location","id":"66","identifier":[{"value":"5F3D1140-EE3B-4D6A-A75E-BC6D543E1946"},{"value":"1377515538"}],"name":"Baltimore Food & Liquor","address":{"line":["13322 S BALTIMORE AVE"],"city":"HEGEWISCH","state":"IL","postalCode":"60633"},"position":{"latitude":41.6529646117,"longitude":-87.5472986528},"status":"active","meta":{"lastUpdated":"2023-03-24T19:59:25.308Z"}}
{"resourceType":"Location","id":"67","identifier":[{"value":"0F0B488A-13BF-4986-9A06-64B1ABF8C25C"},{"value":"1377515538"}],"name":"BARI","address":{"line":["1120 W GRAND AVE"],"city":"WEST TOWN","state":"IL","postalCode":"60622"},"position":{"latitude":41.8912101212,"longitude":-87.6555602414},"status":"active","meta":{"lastUpdated":"2023-03-24T19:59:25.341Z"}}
{"resourceType":"Location","id":"68","identifier":[{"value":"313B6D43-2C1D-4751-920A-AF1BDB2A5E4E"},{"value":"1377515538"}],"name":"BERBATE FRUIT MARKET","address":{"line":["3956 N NARRAGANSETT AVE"],"city":"DUNNING","state":"IL","postalCode":"60634"},"position":{"latitude":41.9527315616,"longitude":-87.7866984426},"status":"active","meta":{"lastUpdated":"2023-03-24T19:59:25.342Z"}}
{"resourceType":"Location","id":"69","identifier":[{"value":"8EAED481-8541-444B-9864-921E2D6410F8"},{"value":"1377515538"}],"name":"BIG APPLE FINER FOODS INC","address":{"line":["2345 N CLARK ST"],"city":"LINCOLN PARK","state":"IL","postalCode":"60614"},"position":{"latitude":41.9249661791,"longitude":-87.639926019},"status":"active","meta":{"lastUpdated":"2023-03-24T19:59:25.368Z"}}
{"resourceType":"Location","id":"70","identifier":[{"value":"B6AF54F3-DDA3-4913-BC68-CB6AD416630A"},{"value":"1377515538"}],"name":"BOB'S LIQUORS & GROCERIES","address":{"line":["5069 W MADISON ST"],"city":"AUSTIN","state":"IL","postalCode":"60644"},"position":{"latitude":41.8802960895,"longitude":-87.7524941982},"status":"active","meta":{"lastUpdated":"2023-03-24T19:59:25.390Z"}}
{"resourceType":"Location","id":"71","identifier":[{"value":"82DE38EA-F883-4DEC-85C7-3C8A103BD208"},{"value":"1377515538"}],"name":"BOCKWINKELS","address":{"line":["222 N COLUMBUS DR"],"city":"LOOP","state":"IL","postalCode":"60601"},"position":{"latitude":41.886339416,"longitude":-87.62083615},"status":"active","meta":{"lastUpdated":"2023-03-24T19:59:25.411Z"}}
{"resourceType":"Location","id":"72","identifier":[{"value":"F2A10840-22A4-4E30-A598-B6FADCC52063"},{"value":"1377515538"}],"name":"BOULEVARD FOOD & LIQUOR LLC","address":{"line":["5922 W IRVING PARK RD"],"city":"PORTAGE PARK","state":"IL","postalCode":"60634"},"position":{"latitude":41.9531825896,"longitude":-87.7752593753},"status":"active","meta":{"lastUpdated":"2023-03-24T19:59:25.425Z"}}
{"resourceType":"Location","id":"73","identifier":[{"value":"F6D4DE47-C67A-4E74-B019-8C2488BDFD13"},{"value":"1377515538"}],"name":"BROADWAY SUPERMARKET","address":{"line":["4879 N BROADWAY"],"city":"UPTOWN","state":"IL","postalCode":"60640"},"position":{"latitude":41.9711711808,"longitude":-87.659580975},"status":"active","meta":{"lastUpdated":"2023-03-24T19:59:25.453Z"}}
{"resourceType":"Location","id":"74","identifier":[{"value":"33AEFB6C-5EAB-4B90-9707-3C9401F4EED0"},{"value":"1377515538"}],"name":"BUDGET FINER FOODS","address":{"line":["6604 N SHERIDAN RD"],"city":"ROGERS PARK","state":"IL","postalCode":"60626"},"position":{"latitude":42.0027261067,"longitude":-87.6609383664},"status":"active","meta":{"lastUpdated":"2023-03-24T19:59:25.464Z"}}
{"resourceType":"Location","id":"75","identifier":[{"value":"3D641F96-FB14-4359-83E9-1594C17C77BE"},{"value":"1377515538"}],"name":"BURNHAM PLAZA MART","address":{"line":["828 S WABASH AVE"],"city":"LOOP","state":"IL","postalCode":"60605"},"position":{"latitude":41.8714441963,"longitude":-87.6260751303},"status":"active","meta":{"lastUpdated":"2023-03-24T19:59:25.498Z"}}
{"resourceType":"Location","id":"76","identifier":[{"value":"76923D2B-6653-4A56-A27B-A7A881DB572D"},{"value":"1377515538"}],"name":"BUSY BEE SUPERMARKET","address":{"line":["5659 S ASHLAND AVE"],"city":"WEST ENGLEWOOD","state":"IL","postalCode":"60636"},"position":{"latitude":41.7904800194,"longitude":-87.6643450657},"status":"active","meta":{"lastUpdated":"2023-03-24T19:59:25.517Z"}}
{"resourceType":"Location","id":"77","identifier":[{"value":"133052C2-2FA9-44F3-9674-D27D331FFC6B"},{"value":"1377515538"}],"name":"BUY -N- SAVE","address":{"line":["209 E 103RD ST"],"city":"ROSELAND","state":"IL","postalCode":"60628"},"position":{"latitude":41.7071353216,"longitude":-87.6182417299},"status":"active","meta":{"lastUpdated":"2023-03-24T19:59:25.541Z"}}
{"resourceType":"Location","id":"78","identifier":[{"value":"BB21CAB5-7A5E-469A-A0AE-77E78D193EF9"},{"value":"1377515538"}],"name":"CAESAR'S FOODS INC","address":{"line":["901 N DAMEN AVE"],"city":"WEST TOWN","state":"IL","postalCode":"60622"},"position":{"latitude":41.8977792769,"longitude":-87.6769588663},"status":"active","meta":{"lastUpdated":"2023-03-24T19:59:25.557Z"}}
{"resourceType":"Location","id":"79","identifier":[{"value":"64C95971-9D68-48D6-8894-C478E1053B6B"},{"value":"1377515538"}],"name":"CALABRIA IMPORTS, INC.","address":{"line":["1905 W 103RD ST"],"city":"BEVERLY","state":"IL","postalCode":"60643"},"position":{"latitude":41.7064733245,"longitude":-87.6693549885},"status":"active","meta":{"lastUpdated":"2023-03-24T19:59:25.585Z"}}
{"resourceType":"Location","id":"80","identifier":[{"value":"42473D68-C0E4-415A-AB97-1DCF9EA25C2A"},{"value":"1377515538"}],"name":"CALMA OPTIMAL DELI, INC.","address":{"line":["5155 W ADDISON ST"],"city":"PORTAGE PARK","state":"IL","postalCode":"60641"},"position":{"latitude":41.9458951009,"longitude":-87.7566458523},"status":"active","meta":{"lastUpdated":"2023-03-24T19:59:25.587Z"}}
{"resourceType":"Location","id":"81","identifier":[{"value":"2D3B05A9-24E3-41A5-8A8A-E487174AB1B1"},{"value":"1377515538"}],"name":"CARNICERIA DEL RIO","address":{"line":["2714 W CERMAK RD"],"city":"SOUTH LAWNDALE","state":"IL","postalCode":"60608"},"position":{"latitude":41.8520347381,"longitude":-87.6936969081},"status":"active","meta":{"lastUpdated":"2023-03-24T19:59:25.614Z"}}
{"resourceType":"Location","id":"82","identifier":[{"value":"31E8793A-092F-43E6-B658-1E6EF0435F7A"},{"value":"1377515538"}],"name":"CARNICERIA EL PORVENIR","address":{"line":["150 E KENSINGTON AVE"],"city":"WEST PULLMAN","state":"IL","postalCode":"60628"},"position":{"latitude":41.684063198,"longitude":-87.6187429679},"status":"active","meta":{"lastUpdated":"2023-03-24T19:59:25.628Z"}}
{"resourceType":"Location","id":"83","identifier":[{"value":"89E64B2E-7EDF-45AF-8CFE-499BF9B97200"},{"value":"1377515538"}],"name":"CARNICERIA GUANAJUATO","address":{"line":["5250 W FULLERTON AVE"],"city":"BELMONT CRAGIN","state":"IL","postalCode":"60639"},"position":{"latitude":41.9241891458,"longitude":-87.7582297412},"status":"active","meta":{"lastUpdated":"2023-03-24T19:59:25.636Z"}}
{"resourceType":"Location","id":"84","identifier":[{"value":"C12F82C3-DF41-43BC-981B-FEC1D18CD19F"},{"value":"1377515538"}],"name":"CARNICERIA GUANAJUATO #3","address":{"line":["3132 N CALIFORNIA AVE"],"city":"AVONDALE","state":"IL","postalCode":"60618"},"position":{"latitude":41.9385697153,"longitude":-87.6979459455},"status":"active","meta":{"lastUpdated":"2023-03-24T19:59:25.657Z"}}
{"resourceType":"Location","id":"85","identifier":[{"value":"1CE3C894-3860-4EE0-9E09-90E9DA1F8E0C"},{"value":"1377515538"}],"name":"CARNICERIA GUANJUATO #3","address":{"line":["1436 N ASHLAND AVE"],"city":"WEST TOWN","state":"IL","postalCode":"60622"},"position":{"latitude":41.9081153739,"longitude":-87.6677638335},"status":"active","meta":{"lastUpdated":"2023-03-24T19:59:25.674Z"}}
{"resourceType":"Location","id":"86","identifier":[{"value":"74B0EFBC-72D7-4530-9F4A-5942400F28F6"},{"value":"1377515538"}],"name":"CARNICERIA JIMENEZ #2","address":{"line":["3850 W FULLERTON AVE"],"city":"LOGAN SQUARE","state":"IL","postalCode":"60647"},"position":{"latitude":41.9246283205,"longitude":-87.723953321},"status":"active","meta":{"lastUpdated":"2023-03-24T19:59:25.675Z"}}
{"resourceType":"Location","id":"87","identifier":[{"value":"253E97DA-4164-455C-8116-33DD241605C8"},{"value":"1377515538"}],"name":"CARNICERIA JIMENEZ INC","address":{"line":["4204 W NORTH AVE"],"city":"HUMBOLDT PARK","state":"IL","postalCode":"60639"},"position":{"latitude":41.9099252471,"longitude":-87.7315572163},"status":"active","meta":{"lastUpdated":"2023-03-24T19:59:25.696Z"}}
{"resourceType":"Location","id":"88","identifier":[{"value":"D4ABA9EB-7B7D-4967-A22B-05F3AA503670"},{"value":"1377515538"}],"name":"CARNICERIA LA AZTECA","address":{"line":["7067 N CLARK ST"],"city":"ROGERS PARK","state":"IL","postalCode":"60626"},"position":{"latitude":42.0109629527,"longitude":-87.6742146577},"status":"active","meta":{"lastUpdated":"2023-03-24T19:59:25.705Z"}}
{"resourceType":"Location","id":"89","identifier":[{"value":"69B72284-B68E-43C3-A1E7-539D1279BDE8"},{"value":"1377515538"}],"name":"CARNICERIA LA GLORIA","address":{"line":["2551 W 51ST ST"],"city":"GAGE PARK","state":"IL","postalCode":"60632"},"position":{"latitude":41.8009692763,"longitude":-87.6887220987},"status":"active","meta":{"lastUpdated":"2023-03-24T19:59:25.711Z"}}
{"resourceType":"Location","id":"90","identifier":[{"value":"F6F0433E-0FAD-4D5C-9A73-CF36800FD75C"},{"value":"1377515538"}],"name":"CARNICERIA LA GLORIA NO. 2, INC.","address":{"line":["2744 W 55TH ST"],"city":"GAGE PARK","state":"IL","postalCode":"60632"},"position":{"latitude":41.7938118263,"longitude":-87.6931506024},"status":"active","meta":{"lastUpdated":"2023-03-24T19:59:25.730Z"}}
{"resourceType":"Location","id":"91","identifier":[{"value":"829DAAFA-9A55-4B97-B223-6279D1240301"},{"value":"1377515538"}],"name":"CARNICERIA LA HACIENDA, INC.","address":{"line":["3459 W 59TH ST"],"city":"CHICAGO LAWN","state":"IL","postalCode":"60629"},"position":{"latitude":41.786024401,"longitude":-87.7106047774},"status":"active","meta":{"lastUpdated":"2023-03-24T19:59:25.746Z"}}
{"resourceType":"Location","id":"92","identifier":[{"value":"FD45DA19-8A2F-4CA2-AC48-0AAFF42BFDE8"},{"value":"1377515538"}],"name":"CARNICERIA LA MEJOR PRODUCE, INC.","address":{"line":["2915 N MILWAUKEE AVE"],"city":"AVONDALE","state":"IL","postalCode":"60618"},"position":{"latitude":41.9343143994,"longitude":-87.7157719991},"status":"active","meta":{"lastUpdated":"2023-03-24T19:59:25.747Z"}}
{"resourceType":"Location","id":"93","identifier":[{"value":"8EE1A543-D847-4498-AE64-1141816E2674"},{"value":"1377515538"}],"name":"CARNICERIA LA VILLA #2","address":{"line":["5800 W GRAND AVE"],"city":"BELMONT CRAGIN","state":"IL","postalCode":"60639"},"position":{"latitude":41.919774901,"longitude":-87.7707265258},"status":"active","meta":{"lastUpdated":"2023-03-24T19:59:25.770Z"}}
{"resourceType":"Location","id":"94","identifier":[{"value":"B87CEB71-0C9E-4C6D-BC82-032B2F2C07D8"},{"value":"1377515538"}],"name":"CARNICERIA RICARDO","address":{"line":["4419 W DIVERSEY AVE"],"city":"HERMOSA","state":"IL","postalCode":"60639"},"position":{"latitude":41.9315407469,"longitude":-87.7375725127},"status":"active","meta":{"lastUpdated":"2023-03-24T19:59:25.792Z"}}
{"resourceType":"Location","id":"95","identifier":[{"value":"D2138C0E-B120-47CD-9338-0EE0C3081447"},{"value":"1377515538"}],"name":"CARNICERIA&FRUTERIA EL MITOTE","address":{"line":["4459 W BELMONT AVE"],"city":"HERMOSA","state":"IL","postalCode":"60641"},"position":{"latitude":41.9388195147,"longitude":-87.7394338028},"status":"active","meta":{"lastUpdated":"2023-03-24T19:59:25.795Z"}}
{"resourceType":"Location","id":"96","identifier":[{"value":"CB8FD73F-7265-482D-82E9-BAC84406EC79"},{"value":"1377515538"}],"name":"CENTRAL PARK FOODS INC","address":{"line":["3604 W GRAND AVE"],"city":"HUMBOLDT PARK","state":"IL","postalCode":"60651"},"position":{"latitude":41.9024736738,"longitude":-87.7168174653},"status":"active","meta":{"lastUpdated":"2023-03-24T19:59:25.813Z"}}
{"resourceType":"Location","id":"97","identifier":[{"value":"55C7C7A8-6F43-4F97-AE59-78408E101F9F"},{"value":"1377515538"}],"name":"CENTRO MARKET","address":{"line":["5153 S KEDZIE AVE"],"city":"GAGE PARK","state":"IL","postalCode":"60632"},"position":{"latitude":41.7992570437,"longitude":-87.7035747066},"status":"active","meta":{"lastUpdated":"2023-03-24T19:59:25.832Z"}}
{"resourceType":"Location","id":"98","identifier":[{"value":"C879C600-2284-4583-9222-E6D2D5B3F45A"},{"value":"1377515538"}],"name":"CERMAK PRODUCE","address":{"line":["4800 W DIVERSEY AVE"],"city":"BELMONT CRAGIN","state":"IL","postalCode":"60639"},"position":{"latitude":41.9316414204,"longitude":-87.7467199106},"status":"active","meta":{"lastUpdated":"2023-03-24T19:59:25.835Z"}}
{"resourceType":"Location","id":"99","identifier":[{"value":"E911CE9A-ADA8-422D-BA20-0AFC3562E990"},{"value":"1377515538"}],"name":"CERMAK PRODUCE","address":{"line":["4401 W ARMITAGE AVE"],"city":"HERMOSA","state":"IL","postalCode":"60639"},"position":{"latitude":41.9169344398,"longitude":-87.7363871475},"status":"active","meta":{"lastUpdated":"2023-03-24T19:59:25.857Z"}}
{"resourceType":"Location","id":"100","identifier":[{"value":"31ABA494-0516-4C02-9CC3-6C49F7F3B891"},{"value":"1377515538"}],"name":"CERMAK PRODUCE","address":{"line":["1711 W CERMAK RD"],"city":"LOWER WEST SIDE","state":"IL","postalCode":"60608"},"position":{"latitude":41.8521678636,"longitude":-87.6689750407},"status":"active","meta":{"lastUpdated":"2023-03-24T19:59:25.879Z"}}
{"resourceType":"Location","id":"101","identifier":[{"value":"0FBFF511-7527-48A2-AD5F-790BC1D25481"},{"value":"1377515538"}],"name":"CERMAK PRODUCE","address":{"line":["3311 W 26TH ST"],"city":"SOUTH LAWNDALE","state":"IL","postalCode":"60623"},"position":{"latitude":41.8443667287,"longitude":-87.7078980538},"status":"active","meta":{"lastUpdated":"2023-03-24T19:59:25.887Z"}}
{"resourceType":"Location","id":"102","identifier":[{"value":"D60EAFAA-D2F3-4A30-B7EC-BEE485ED02AF"},{"value":"1377515538"}],"name":"CERMAK PRODUCE","address":{"line":["5220 S PULASKI RD"],"city":"WEST ELSDON","state":"IL","postalCode":"60632"},"position":{"latitude":41.79799187,"longitude":-87.7234437408},"status":"active","meta":{"lastUpdated":"2023-03-24T19:59:25.898Z"}}
{"resourceType":"Location","id":"103","identifier":[{"value":"058B56CA-6C96-40DD-BA6A-61E38E660A5C"},{"value":"1377515538"}],"name":"CERMAK PRODUCE","address":{"line":["4234 N KEDZIE AVE"],"city":"IRVING PARK","state":"IL","postalCode":"60618"},"position":{"latitude":41.9585967247,"longitude":-87.7083095759},"status":"active","meta":{"lastUpdated":"2023-03-24T19:59:25.920Z"}}
{"resourceType":"Location","id":"104","identifier":[{"value":"CB0864D0-21E7-439A-A938-909FC1B0375C"},{"value":"1377515538"}],"name":"CERMAK PRODUCE #5 LTD","address":{"line":["3435 S ARCHER AVE"],"city":"MCKINLEY PARK","state":"IL","postalCode":"60608"},"position":{"latitude":41.8313499001,"longitude":-87.6758478479},"status":"active","meta":{"lastUpdated":"2023-03-24T19:59:25.922Z"}}
{"resourceType":"Location","id":"105","identifier":[{"value":"5C5866FA-F8AD-442B-B846-01B8C7532971"},{"value":"1377515538"}],"name":"CERMAK PRODUCE NO.4","address":{"line":["2701 W NORTH AVE"],"city":"WEST TOWN","state":"IL","postalCode":"60647"},"position":{"latitude":41.9101322404,"longitude":-87.6946003939},"status":"active","meta":{"lastUpdated":"2023-03-24T19:59:25.940Z"}}
{"resourceType":"Location","id":"106","identifier":[{"value":"903DDA4E-E886-4902-B3DB-89BA759C66B8"},{"value":"1377515538"}],"name":"CHARLIES  SUPERMARKET INC.","address":{"line":["2941 W MONTROSE AVE"],"city":"IRVING PARK","state":"IL","postalCode":"60618"},"position":{"latitude":41.9611144263,"longitude":-87.7025869386},"status":"active","meta":{"lastUpdated":"2023-03-24T19:59:25.958Z"}}
{"resourceType":"Location","id":"107","identifier":[{"value":"561693BC-6CBB-4A28-AFC5-1177612BE9FC"},{"value":"1377515538"}],"name":"CHATHAM FOOD MARKET","address":{"line":["327 E 79TH ST"],"city":"CHATHAM","state":"IL","postalCode":"60619"},"position":{"latitude":41.7509726753,"longitude":-87.6169578802},"status":"active","meta":{"lastUpdated":"2023-03-24T19:59:25.959Z"}}
{"resourceType":"Location","id":"108","identifier":[{"value":"25995F22-3E58-4A29-A81A-FFD8CE07A063"},{"value":"1377515538"}],"name":"CHICAGO FOOD CORP","address":{"line":["5800 N PULASKI RD"],"city":"NORTH PARK","state":"IL","postalCode":"60646"},"position":{"latitude":41.9859279924,"longitude":-87.7286634185},"status":"active","meta":{"lastUpdated":"2023-03-24T19:59:25.960Z"}}
{"resourceType":"Location","id":"109","identifier":[{"value":"53FBA90F-D2D0-4504-A4B6-E33DF70AE6E4"},{"value":"1377515538"}],"name":"CHICAGO GROCERS","address":{"line":["2122 W DEVON AVE"],"city":"WEST RIDGE","state":"IL","postalCode":"60659"},"position":{"latitude":41.9979458853,"longitude":-87.683568705},"status":"active","meta":{"lastUpdated":"2023-03-24T19:59:25.991Z"}}
{"resourceType":"Location","id":"110","identifier":[{"value":"6D7F619B-8F45-454C-9790-47F2CB0079E2"},{"value":"1377515538"}],"name":"Chicago Health - Maple Street","address":{"line":["22 W MAPLE ST"],"city":"NEAR NORTH SIDE","state":"IL","postalCode":"60610"},"position":{"latitude":41.9019825524,"longitude":-87.6292631031},"status":"active","meta":{"lastUpdated":"2023-03-24T19:59:26.008Z"}}
{"resourceType":"Location","id":"111","identifier":[{"value":"EFA72C4D-D122-4A90-B0A2-1E95AC914C4B"},{"value":"1377515538"}],"name":"CHICAGO PRODUCE","address":{"line":["3500 W LAWRENCE AVE"],"city":"ALBANY PARK","state":"IL","postalCode":"60625"},"position":{"latitude":41.9684853733,"longitude":-87.7158713295},"status":"active","meta":{"lastUpdated":"2023-03-24T19:59:26.010Z"}}
{"resourceType":"Location","id":"112","identifier":[{"value":"0CCC3DAA-8C70-48EB-BCB8-1C819F4181A7"},{"value":"1377515538"}],"name":"CICERO DELI INC.","address":{"line":["3206 N CICERO AVE"],"city":"PORTAGE PARK","state":"IL","postalCode":"60641"},"position":{"latitude":41.93904667,"longitude":-87.7470219655},"status":"active","meta":{"lastUpdated":"2023-03-24T19:59:26.033Z"}}
{"resourceType":"Location","id":"113","identifier":[{"value":"ED5CADF3-5549-4659-AE5B-AF6B2B6CBACC"},{"value":"1377515538"}],"name":"CITY GROCERY","address":{"line":["405 N WABASH AVE"],"city":"NEAR NORTH SIDE","state":"IL","postalCode":"60611"},"position":{"latitude":41.8894653288,"longitude":-87.6265092736},"status":"active","meta":{"lastUpdated":"2023-03-24T19:59:26.035Z"}}
{"resourceType":"Location","id":"114","identifier":[{"value":"EDEC3711-37B5-4B01-A25E-B63AC583B2C1"},{"value":"1377515538"}],"name":"CLARENDON FOOD MART INC","address":{"line":["4183 N CLARENDON AVE"],"city":"UPTOWN","state":"IL","postalCode":"60613"},"position":{"latitude":41.9580048015,"longitude":-87.6496537356},"status":"active","meta":{"lastUpdated":"2023-03-24T19:59:26.035Z"}}
{"resourceType":"Location","id":"115","identifier":[{"value":"A4A1DA47-7949-4E47-B1B7-81354178196C"},{"value":"1377515538"}],"name":"CLYBOURN MARKET","address":{"line":["2807 N CLYBOURN AVE"],"city":"NORTH CENTER","state":"IL","postalCode":"60618"},"position":{"latitude":41.9325791837,"longitude":-87.678327456},"status":"active","meta":{"lastUpdated":"2023-03-24T19:59:26.076Z"}}
{"resourceType":"Location","id":"116","identifier":[{"value":"92722350-D056-4FF7-9061-21CD5CBD7228"},{"value":"1377515538"}],"name":"COMMERCIAL GROCERY","address":{"line":["3004 E 100TH ST"],"city":"SOUTH DEERING","state":"IL","postalCode":"60617"},"position":{"latitude":41.7134978435,"longitude":-87.5507331066},"status":"active","meta":{"lastUpdated":"2023-03-24T19:59:26.081Z"}}
{"resourceType":"Location","id":"117","identifier":[{"value":"C363AB81-A983-49A7-879D-03EDB091F6AA"},{"value":"1377515538"}],"name":"CORCORANS PANTRY INC","address":{"line":["1105 W BRYN MAWR AVE"],"city":"EDGEWATER","state":"IL","postalCode":"60660"},"position":{"latitude":41.9835447852,"longitude":-87.6582676725},"status":"active","meta":{"lastUpdated":"2023-03-24T19:59:26.083Z"}}
{"resourceType":"Location","id":"118","identifier":[{"value":"C2289453-5011-44BC-B5C5-EF6E9E04E364"},{"value":"1377515539"}],"name":"COTTAGE GROVE FOOD MART","address":{"line":["6307 S COTTAGE GROVE AVE"],"city":"WOODLAWN","state":"IL","postalCode":"60637"},"position":{"latitude":41.7801519592,"longitude":-87.6057775241},"status":"active","meta":{"lastUpdated":"2023-03-24T19:59:26.130Z"}}
{"resourceType":"Location","id":"119","identifier":[{"value":"E5A4CD8B-C590-4665-8D41-81B04F00624A"},{"value":"1377515539"}],"name":"COUNTY FAIR FOODS","address":{"line":["10800 S WESTERN AVE"],"city":"MORGAN PARK","state":"IL","postalCode":"60643"},"position":{"latitude":41.6972382088,"longitude":-87.6814748042},"status":"active","meta":{"lastUpdated":"2023-03-24T19:59:26.133Z"}}
{"resourceType":"Location","id":"120","identifier":[{"value":"E605D357-F78A-4715-B22E-6CAD13DAA86C"},{"value":"1377515539"}],"name":"CRESPO'S FOOD MART","address":{"line":["4353 W MADISON ST"],"city":"WEST GARFIELD PARK","state":"IL","postalCode":"60624"},"position":{"latitude":41.880504995,"longitude":-87.7351228503},"status":"active","meta":{"lastUpdated":"2023-03-24T19:59:26.139Z"}}
{"resourceType":"Location","id":"121","identifier":[{"value":"404A4E65-B646-4F98-92E5-A228A0A28EDF"},{"value":"1377515539"}],"name":"CUENCA'S BAKERY & GROCERIES","address":{"line":["4229 W MONTROSE AVE"],"city":"IRVING PARK","state":"IL","postalCode":"60641"},"position":{"latitude":41.9607675196,"longitude":-87.7339469271},"status":"active","meta":{"lastUpdated":"2023-03-24T19:59:26.186Z"}}
{"resourceType":"Location","id":"122","identifier":[{"value":"867DF2D8-4FB4-4945-A7F6-29934D89763C"},{"value":"1377515539"}],"name":"CUPBOARD FOOD & LIQUOR","address":{"line":["3260 W 55TH ST"],"city":"GAGE PARK","state":"IL","postalCode":"60632"},"position":{"latitude":41.7935891795,"longitude":-87.7059457835},"status":"active","meta":{"lastUpdated":"2023-03-24T19:59:26.187Z"}}
{"resourceType":"Location","id":"123","identifier":[{"value":"82221A80-F6A1-47AB-A258-2CCFDC96CF97"},{"value":"1377515539"}],"name":"D & A FOOD & LIQUOR","address":{"line":["1601 W GARFIELD BLVD"],"city":"WEST ENGLEWOOD","state":"IL","postalCode":"60636"},"position":{"latitude":41.793554363,"longitude":-87.6646375512},"status":"active","meta":{"lastUpdated":"2023-03-24T19:59:26.189Z"}}
{"resourceType":"Location","id":"124","identifier":[{"value":"24199D18-B71F-43F9-AC76-608B8055BCE4"},{"value":"1377515539"}],"name":"DANNY'S FRESH MARKET","address":{"line":["2140 N WESTERN AVE"],"city":"LOGAN SQUARE","state":"IL","postalCode":"60647"},"position":{"latitude":41.921096268,"longitude":-87.6876710129},"status":"active","meta":{"lastUpdated":"2023-03-24T19:59:26.235Z"}}
{"resourceType":"Location","id":"125","identifier":[{"value":"B9DF9951-4034-4B9F-BAFA-43B9ED0B3BCF"},{"value":"1377515539"}],"name":"DEVON MARKET","address":{"line":["1440 W DEVON AVE"],"city":"ROGERS PARK","state":"IL","postalCode":"60660"},"position":{"latitude":41.9982282538,"longitude":-87.6671044665},"status":"active","meta":{"lastUpdated":"2023-03-24T19:59:26.236Z"}}
{"resourceType":"Location","id":"126","identifier":[{"value":"2FD4D5F2-20AE-41DF-BC53-53E4068AAF27"},{"value":"1377515539"}],"name":"DIA FOOD & LIQUOR","address":{"line":["1478 W 115TH ST"],"city":"MORGAN PARK","state":"IL","postalCode":"60643"},"position":{"latitude":41.6849557984,"longitude":-87.659725829},"status":"active","meta":{"lastUpdated":"2023-03-24T19:59:26.237Z"}}
{"resourceType":"Location","id":"127","identifier":[{"value":"6A0189E2-29D0-4E1D-8E44-1B0784D8BC30"},{"value":"1377515539"}],"name":"DILILAH GROCERY","address":{"line":["1759 W 21ST ST"],"city":"LOWER WEST SIDE","state":"IL","postalCode":"60608"},"position":{"latitude":41.8539678804,"longitude":-87.6708701882},"status":"active","meta":{"lastUpdated":"2023-03-24T19:59:26.292Z"}}
{"resourceType":"Location","id":"128","identifier":[{"value":"1A99A086-8AD0-40B6-89D8-DF783028D4F0"},{"value":"1377515539"}],"name":"DISCOUNT MEAT COMPANY","address":{"line":["339 W 79TH ST"],"city":"CHATHAM","state":"IL","postalCode":"60620"},"position":{"latitude":41.7506874405,"longitude":-87.6333809292},"status":"active","meta":{"lastUpdated":"2023-03-24T19:59:26.294Z"}}
{"resourceType":"Location","id":"129","identifier":[{"value":"F0750585-FD08-4C85-BF42-19C9DF25E178"},{"value":"1377515539"}],"name":"DISCOUNT PANTRY CORPORATION","address":{"line":["4153 W 63RD ST"],"city":"WEST LAWN","state":"IL","postalCode":"60629"},"position":{"latitude":41.7784929073,"longitude":-87.727327519},"status":"active","meta":{"lastUpdated":"2023-03-24T19:59:26.294Z"}}
{"resourceType":"Location","id":"130","identifier":[{"value":"1ACA8B7D-8568-42C6-94B1-ABB64A8B531F"},{"value":"1377515539"}],"name":"DOLLAR & LINEN","address":{"line":["1853 W 87TH ST"],"city":"AUBURN GRESHAM","state":"IL","postalCode":"60620"},"position":{"latitude":41.7355890742,"longitude":-87.6699517263},"status":"active","meta":{"lastUpdated":"2023-03-24T19:59:26.338Z"}}
{"resourceType":"Location","id":"131","identifier":[{"value":"ED78872F-67BA-414F-B6D9-D35E9E73CB85"},{"value":"1377515539"}],"name":"DOLLAR DEALS & UP","address":{"line":["2057 N PULASKI RD"],"city":"HERMOSA","state":"IL","postalCode":"60639"},"position":{"latitude":41.9188912639,"longitude":-87.726465315},"status":"active","meta":{"lastUpdated":"2023-03-24T19:59:26.340Z"}}
{"resourceType":"Location","id":"132","identifier":[{"value":"B3F9EE90-265F-4028-A2AE-DF51BE9D50B5"},{"value":"1377515539"}],"name":"DOMINICK'S","address":{"line":["6623 N DAMEN AVE"],"city":"WEST RIDGE","state":"IL","postalCode":"60645"},"position":{"latitude":42.0022233751,"longitude":-87.680128828},"status":"active","meta":{"lastUpdated":"2023-03-24T19:59:26.362Z"}}
{"resourceType":"Location","id":"133","identifier":[{"value":"F9D11F86-70B4-480D-85AF-8CAA6F8DC03E"},{"value":"1377515539"}],"name":"DOMINICK'S # 1100","address":{"line":["3145 S ASHLAND AVE"],"city":"MCKINLEY PARK","state":"IL","postalCode":"60608"},"position":{"latitude":41.8364683477,"longitude":-87.6655669021},"status":"active","meta":{"lastUpdated":"2023-03-24T19:59:26.384Z"}}
{"resourceType":"Location","id":"134","identifier":[{"value":"A54BCBE1-33D0-406A-8243-99472788D17A"},{"value":"1377515539"}],"name":"DOMINICK'S # 113/1113","address":{"line":["6312 N NAGLE AVE"],"city":"NORWOOD PARK","state":"IL","postalCode":"60646"},"position":{"latitude":41.9959852861,"longitude":-87.7876371171},"status":"active","meta":{"lastUpdated":"2023-03-24T19:59:26.401Z"}}
{"resourceType":"Location","id":"135","identifier":[{"value":"754CADC7-6F8B-4DA2-BB15-2E1925DC135B"},{"value":"1377515539"}],"name":"DOMINICK'S # 12/0012","address":{"line":["6009 N BROADWAY"],"city":"EDGEWATER","state":"IL","postalCode":"60660"},"position":{"latitude":41.9911817534,"longitude":-87.6601550832},"status":"active","meta":{"lastUpdated":"2023-03-24T19:59:26.414Z"}}
{"resourceType":"Location","id":"136","identifier":[{"value":"2972F354-E44F-4F15-B28A-E284A45C71FD"},{"value":"1377515539"}],"name":"DOMINICK'S # 130/1130","address":{"line":["2101 E 71ST ST"],"city":"SOUTH SHORE","state":"IL","postalCode":"60649"},"position":{"latitude":41.7659900011,"longitude":-87.5737873367},"status":"active","meta":{"lastUpdated":"2023-03-24T19:59:26.431Z"}}
{"resourceType":"Location","id":"137","identifier":[{"value":"687C518D-4733-41BA-A69F-0B161985EA12"},{"value":"1377515539"}],"name":"DOMINICK'S # 304/2304","address":{"line":["2550 N CLYBOURN AVE"],"city":"LINCOLN PARK","state":"IL","postalCode":"60614"},"position":{"latitude":41.9278717231,"longitude":-87.6732588146},"status":"active","meta":{"lastUpdated":"2023-03-24T19:59:26.431Z"}}
{"resourceType":"Location","id":"138","identifier":[{"value":"7330D78E-04A5-4618-A2AB-C25919CA3A25"},{"value":"1377515539"}],"name":"DOMINICK'S # 86/1086","address":{"line":["3350 N WESTERN AVE"],"city":"NORTH CENTER","state":"IL","postalCode":"60618"},"position":{"latitude":41.9427471952,"longitude":-87.6883543215},"status":"active","meta":{"lastUpdated":"2023-03-24T19:59:26.432Z"}}
{"resourceType":"Location","id":"139","identifier":[{"value":"4B4058FF-EB84-472D-9EA8-46024B1F633C"},{"value":"1377515539"}],"name":"DOMINICK'S #147/1147","address":{"line":["1340 S CANAL ST"],"city":"NEAR WEST SIDE","state":"IL","postalCode":"60607"},"position":{"latitude":41.8645211937,"longitude":-87.6393040996},"status":"active","meta":{"lastUpdated":"2023-03-24T19:59:26.461Z"}}
{"resourceType":"Location","id":"140","identifier":[{"value":"3D101B0F-AFD7-4DFD-874F-13B1F631A99B"},{"value":"1377515539"}],"name":"DOMINICK'S #153/2153","address":{"line":["424 W DIVISION ST"],"city":"NEAR NORTH SIDE","state":"IL","postalCode":"60610"},"position":{"latitude":41.9038839611,"longitude":-87.6394372016},"status":"active","meta":{"lastUpdated":"2023-03-24T19:59:26.464Z"}}
{"resourceType":"Location","id":"141","identifier":[{"value":"8AC97CAB-3B59-4B22-8A19-34C353254BB2"},{"value":"1377515539"}],"name":"DOMINICK'S #160/1698","address":{"line":["1763 W HOWARD ST"],"city":"ROGERS PARK","state":"IL","postalCode":"60626"},"position":{"latitude":42.0192885501,"longitude":-87.6750585094},"status":"active","meta":{"lastUpdated":"2023-03-24T19:59:26.482Z"}}
{"resourceType":"Location","id":"142","identifier":[{"value":"B5B6F64B-77C8-4AE1-A4B0-2B3A7B59F9E8"},{"value":"1377515539"}],"name":"Dominick's #1703","address":{"line":["255 E GRAND AVE"],"city":"NEAR NORTH SIDE","state":"IL","postalCode":"60611"},"position":{"latitude":41.8916898398,"longitude":-87.6204441348},"status":"active","meta":{"lastUpdated":"2023-03-24T19:59:26.491Z"}}
{"resourceType":"Location","id":"143","identifier":[{"value":"E7546770-DD18-45DC-A70B-3F001C6055D7"},{"value":"1377515539"}],"name":"DOMINICK'S #1875","address":{"line":["1 N HALSTED ST"],"city":"NEAR WEST SIDE","state":"IL","postalCode":"60661"},"position":{"latitude":41.8818156316,"longitude":-87.647214717},"status":"active","meta":{"lastUpdated":"2023-03-24T19:59:26.506Z"}}
{"resourceType":"Location","id":"144","identifier":[{"value":"E903E5D3-452B-4703-9E3E-B02B5229A5BA"},{"value":"1377515539"}],"name":"DOMINICKS #2889","address":{"line":["5233 N LINCOLN AVE"],"city":"LINCOLN SQUARE","state":"IL","postalCode":"60625"},"position":{"latitude":41.9768950984,"longitude":-87.6922796678},"status":"active","meta":{"lastUpdated":"2023-03-24T19:59:26.507Z"}}
{"resourceType":"Location","id":"145","identifier":[{"value":"A9CAB1C5-F10A-4F03-AB48-663F992AE7A5"},{"value":"1377515539"}],"name":"DOMINICKS #2890","address":{"line":["5201 N SHERIDAN RD"],"city":"EDGEWATER","state":"IL","postalCode":"60640"},"position":{"latitude":41.9764816676,"longitude":-87.6548397772},"status":"active","meta":{"lastUpdated":"2023-03-24T19:59:26.531Z"}}
{"resourceType":"Location","id":"146","identifier":[{"value":"82248D0F-BACE-4780-B3B2-D4C9085857A1"},{"value":"1377515539"}],"name":"DOMINICK'S FINER FOODS - STORE # 2775","address":{"line":["2021 W CHICAGO AVE"],"city":"WEST TOWN","state":"IL","postalCode":"60622"},"position":{"latitude":41.8957852296,"longitude":-87.6779308926},"status":"active","meta":{"lastUpdated":"2023-03-24T19:59:26.551Z"}}
{"resourceType":"Location","id":"147","identifier":[{"value":"9DE352EE-EA34-430C-B2B6-A666A9F3EFDB"},{"value":"1377515539"}],"name":"DOMINICK'S Finer Foods, Inc. #1695","address":{"line":["959 W FULLERTON AVE"],"city":"LINCOLN PARK","state":"IL","postalCode":"60614"},"position":{"latitude":41.9252682757,"longitude":-87.6534875641},"status":"active","meta":{"lastUpdated":"2023-03-24T19:59:26.561Z"}}
{"resourceType":"Location","id":"148","identifier":[{"value":"53A97690-6497-4D7A-B274-0289E9942CB9"},{"value":"1377515539"}],"name":"E.M. GROCERIES","address":{"line":["5358 S CARPENTER ST"],"city":"NEW CITY","state":"IL","postalCode":"60609"},"position":{"latitude":41.7961289732,"longitude":-87.6514349028},"status":"active","meta":{"lastUpdated":"2023-03-24T19:59:26.562Z"}}
{"resourceType":"Location","id":"149","identifier":[{"value":"6DA47AC7-6235-4000-AD1F-CCE15F602A0E"},{"value":"1377515539"}],"name":"EDDIE & SON FOOD &LIQ.","address":{"line":["3624 W NORTH AVE"],"city":"HUMBOLDT PARK","state":"IL","postalCode":"60647"},"position":{"latitude":41.9100926711,"longitude":-87.7175753532},"status":"active","meta":{"lastUpdated":"2023-03-24T19:59:26.586Z"}}
{"resourceType":"Location","id":"150","identifier":[{"value":"655DAAA2-63C5-4A70-9CEA-69719B0740FA"},{"value":"1377515539"}],"name":"EDDIE'S FOOD MART","address":{"line":["1858 W 63RD ST"],"city":"WEST ENGLEWOOD","state":"IL","postalCode":"60636"},"position":{"latitude":41.7794611564,"longitude":-87.6714366715},"status":"active","meta":{"lastUpdated":"2023-03-24T19:59:26.588Z"}}
{"resourceType":"Location","id":"151","identifier":[{"value":"29B77273-8908-4DFE-86CE-CA5B73681085"},{"value":"1377515539"}],"name":"EDDIE'S SUNSHINE FOOD & LIQUOR,  INC.","address":{"line":["10806 S MICHIGAN AVE"],"city":"ROSELAND","state":"IL","postalCode":"60628"},"position":{"latitude":41.6978179235,"longitude":-87.6210110036},"status":"active","meta":{"lastUpdated":"2023-03-24T19:59:26.611Z"}}
{"resourceType":"Location","id":"152","identifier":[{"value":"B37D50DF-855D-4E36-9A4A-66A33464A6A9"},{"value":"1377515539"}],"name":"EDDY'S FOOD MART","address":{"line":["7575 N ROGERS AVE"],"city":"ROGERS PARK","state":"IL","postalCode":"60626"},"position":{"latitude":42.019164625,"longitude":-87.668397288},"status":"active","meta":{"lastUpdated":"2023-03-24T19:59:26.637Z"}}
{"resourceType":"Location","id":"153","identifier":[{"value":"7D48BAD1-4E44-410D-A6C7-87EE032EABC1"},{"value":"1377515539"}],"name":"EDGEWATER PRODUCE","address":{"line":["5509 N CLARK ST"],"city":"EDGEWATER","state":"IL","postalCode":"60640"},"position":{"latitude":41.981971377,"longitude":-87.6683210323},"status":"active","meta":{"lastUpdated":"2023-03-24T19:59:26.645Z"}}
{"resourceType":"Location","id":"154","identifier":[{"value":"E0A49035-8E46-47F5-A6BF-09CA6E64F0E7"},{"value":"1377515539"}],"name":"EL  PASEO  BORICUA","address":{"line":["2706 W DIVISION ST"],"city":"WEST TOWN","state":"IL","postalCode":"60622"},"position":{"latitude":41.9030542001,"longitude":-87.6947704208},"status":"active","meta":{"lastUpdated":"2023-03-24T19:59:26.647Z"}}
{"resourceType":"Location","id":"155","identifier":[{"value":"D808AF70-1D1A-497E-8BC6-CFFBDCB85B7D"},{"value":"1377515539"}],"name":"EL BARRIO GROCERY","address":{"line":["3938 W NORTH AVE"],"city":"HUMBOLDT PARK","state":"IL","postalCode":"60647"},"position":{"latitude":41.9100080401,"longitude":-87.7254384633},"status":"active","meta":{"lastUpdated":"2023-03-24T19:59:26.676Z"}}
{"resourceType":"Location","id":"156","identifier":[{"value":"51D10BEC-AA25-467D-8E99-51C15F157637"},{"value":"1377515539"}],"name":"EL MILAGRO","address":{"line":["3048 W 26TH ST"],"city":"SOUTH LAWNDALE","state":"IL","postalCode":"60623"},"position":{"latitude":41.8446873274,"longitude":-87.702102936},"status":"active","meta":{"lastUpdated":"2023-03-24T19:59:26.677Z"}}
{"resourceType":"Location","id":"157","identifier":[{"value":"225AC054-9702-4BAB-BE59-A8F4F7A5909F"},{"value":"1377515539"}],"name":"EL YUNQUE FOOD & LIQUOR","address":{"line":["1900 N CALIFORNIA AVE"],"city":"LOGAN SQUARE","state":"IL","postalCode":"60647"},"position":{"latitude":41.9157610232,"longitude":-87.6972958109},"status":"active","meta":{"lastUpdated":"2023-03-24T19:59:26.705Z"}}
{"resourceType":"Location","id":"158","identifier":[{"value":"745467C4-5105-4740-9DAD-C255A3508C86"},{"value":"1377515539"}],"name":"EMILIO'S PRODUCE","address":{"line":["2294 N MILWAUKEE AVE"],"city":"LOGAN SQUARE","state":"IL","postalCode":"60647"},"position":{"latitude":41.9225974657,"longitude":-87.6970976291},"status":"active","meta":{"lastUpdated":"2023-03-24T19:59:26.713Z"}}
{"resourceType":"Location","id":"159","identifier":[{"value":"8B7BC752-A239-4DA7-A504-A992F943A243"},{"value":"1377515539"}],"name":"EUROPA GALLERIA INC","address":{"line":["340 W SUPERIOR ST"],"city":"NEAR NORTH SIDE","state":"IL","postalCode":"60610"},"position":{"latitude":41.8956627719,"longitude":-87.637220715},"status":"active","meta":{"lastUpdated":"2023-03-24T19:59:26.737Z"}}
{"resourceType":"Location","id":"160","identifier":[{"value":"88750E77-DAFD-4974-B6C2-0651BBCB3880"},{"value":"1377515539"}],"name":"EXTRA VALUE FOOD & LIQUOR","address":{"line":["6257 S ASHLAND AVE"],"city":"WEST ENGLEWOOD","state":"IL","postalCode":"60636"},"position":{"latitude":41.7796146658,"longitude":-87.6640774893},"status":"active","meta":{"lastUpdated":"2023-03-24T19:59:26.737Z"}}
{"resourceType":"Location","id":"321","identifier":[{"value":"99B5A7D6-79D3-48EA-A714-3551A2272897"},{"value":"1377515539"}],"name":"MY RANCH, INC.","address":{"line":["4650 N SHERIDAN RD"],"city":"UPTOWN","state":"IL","postalCode":"60640"},"position":{"latitude":41.9669775683,"longitude":-87.6549446417},"status":"active","meta":{"lastUpdated":"2023-03-24T19:59:26.768Z"}}
{"resourceType":"Location","id":"161","identifier":[{"value":"15283FD5-36AE-4875-AB2E-873C2E4F31E2"},{"value":"1377515539"}],"name":"FAIRPLAY FINER FOOD","address":{"line":["2200 S WESTERN AVE"],"city":"LOWER WEST SIDE","state":"IL","postalCode":"60608"},"position":{"latitude":41.8519838396,"longitude":-87.6857857042},"status":"active","meta":{"lastUpdated":"2023-03-24T19:59:26.769Z"}}
{"resourceType":"Location","id":"162","identifier":[{"value":"6AE3FB60-67D3-41A0-9C93-6F910D156B43"},{"value":"1377515539"}],"name":"FAIRPLAY FINER FOODS INC","address":{"line":["4640 S HALSTED ST"],"city":"NEW CITY","state":"IL","postalCode":"60609"},"position":{"latitude":41.809629768,"longitude":-87.6457075651},"status":"active","meta":{"lastUpdated":"2023-03-24T19:59:26.792Z"}}
{"resourceType":"Location","id":"163","identifier":[{"value":"71375323-0519-4747-B638-FE22454F07B9"},{"value":"1377515539"}],"name":"FAIRPLAY FOODS INC","address":{"line":["2323 W 111TH ST"],"city":"MORGAN PARK","state":"IL","postalCode":"60643"},"position":{"latitude":41.691679204,"longitude":-87.6797791725},"status":"active","meta":{"lastUpdated":"2023-03-24T19:59:26.815Z"}}
{"resourceType":"Location","id":"164","identifier":[{"value":"BCF44260-7408-4EF2-8B16-8093A8A95DFE"},{"value":"1377515539"}],"name":"FAIRWAY FOOD","address":{"line":["2900 E 79TH ST"],"city":"SOUTH SHORE","state":"IL","postalCode":"60649"},"position":{"latitude":41.7520053919,"longitude":-87.5540154169},"status":"active","meta":{"lastUpdated":"2023-03-24T19:59:26.819Z"}}
{"resourceType":"Location","id":"165","identifier":[{"value":"889C2518-029C-45DF-8BC4-E9260966F178"},{"value":"1377515539"}],"name":"FAMILY PRIDE","address":{"line":["10601 S PULASKI RD"],"city":"MOUNT GREENWOOD","state":"IL","postalCode":"60655"},"position":{"latitude":41.7003552742,"longitude":-87.7205408964},"status":"active","meta":{"lastUpdated":"2023-03-24T19:59:26.842Z"}}
{"resourceType":"Location","id":"166","identifier":[{"value":"30612DCB-98C6-4191-AB24-579C6D03B1D3"},{"value":"1377515539"}],"name":"FARM SUPER MARKET","address":{"line":["2255 W DEVON AVE"],"city":"WEST RIDGE","state":"IL","postalCode":"60659"},"position":{"latitude":41.9976669579,"longitude":-87.687213456},"status":"active","meta":{"lastUpdated":"2023-03-24T19:59:26.844Z"}}
{"resourceType":"Location","id":"167","identifier":[{"value":"1E42C19A-4C63-447B-B93F-081CB38DA54D"},{"value":"1377515539"}],"name":"FIESTA SUPERMARCADO","address":{"line":["3307 W 63RD ST"],"city":"CHICAGO LAWN","state":"IL","postalCode":"60629"},"position":{"latitude":41.7788185771,"longitude":-87.7059035755},"status":"active","meta":{"lastUpdated":"2023-03-24T19:59:26.858Z"}}
{"resourceType":"Location","id":"168","identifier":[{"value":"7278EB1A-B18C-46BB-8808-149C041D914E"},{"value":"1377515539"}],"name":"FIRST CHOICE MARKET","address":{"line":["3019 E 91ST ST"],"city":"SOUTH CHICAGO","state":"IL","postalCode":"60617"},"position":{"latitude":41.7299778712,"longitude":-87.5503825944},"status":"active","meta":{"lastUpdated":"2023-03-24T19:59:26.872Z"}}
{"resourceType":"Location","id":"169","identifier":[{"value":"FAA5A5BE-E7F8-488D-BDF2-09AC925B3B66"},{"value":"1377515539"}],"name":"FIVE STAR CERTIFIED INC","address":{"line":["935 W 87TH ST"],"city":"AUBURN GRESHAM","state":"IL","postalCode":"60620"},"position":{"latitude":41.7359084057,"longitude":-87.6474228803},"status":"active","meta":{"lastUpdated":"2023-03-24T19:59:26.896Z"}}
{"resourceType":"Location","id":"170","identifier":[{"value":"5F199968-5D73-4DDF-A7D1-7D2CD2E74D07"},{"value":"1377515539"}],"name":"FOOD 4 LESS","address":{"line":["4821 W NORTH AVE"],"city":"AUSTIN","state":"IL","postalCode":"60639"},"position":{"latitude":41.9095051477,"longitude":-87.7469599363},"status":"active","meta":{"lastUpdated":"2023-03-24T19:59:26.907Z"}}
{"resourceType":"Location","id":"171","identifier":[{"value":"DEEB217E-B4CD-4710-82CF-07A8FBB8A2A7"},{"value":"1377515539"}],"name":"FOOD 4 LESS","address":{"line":["112 W 87TH ST"],"city":"CHATHAM","state":"IL","postalCode":"60620"},"position":{"latitude":41.7363800456,"longitude":-87.627509219},"status":"active","meta":{"lastUpdated":"2023-03-24T19:59:26.908Z"}}
{"resourceType":"Location","id":"172","identifier":[{"value":"5AA54AB1-99B7-4EFA-B070-E7A414CBC28F"},{"value":"1377515539"}],"name":"Food 4 Less Midwest","address":{"line":["7030 S ASHLAND AVE"],"city":"WEST ENGLEWOOD","state":"IL","postalCode":"60636"},"position":{"latitude":41.7657907704,"longitude":-87.6639668865},"status":"active","meta":{"lastUpdated":"2023-03-24T19:59:26.914Z"}}
{"resourceType":"Location","id":"173","identifier":[{"value":"36B8AE7C-0D26-4699-9E67-FE2F28D532A9"},{"value":"1377515539"}],"name":"FOOD 4 LESS MIDWEST #789","address":{"line":["4620 S DAMEN AVE"],"city":"NEW CITY","state":"IL","postalCode":"60609"},"position":{"latitude":41.809668528,"longitude":-87.6751156964},"status":"active","meta":{"lastUpdated":"2023-03-24T19:59:26.925Z"}}
{"resourceType":"Location","id":"174","identifier":[{"value":"0D2DAAA9-BCF6-409A-8706-51D7D1A24CC2"},{"value":"1377515539"}],"name":"FOOD BASKET","address":{"line":["7205 S HALSTED ST"],"city":"ENGLEWOOD","state":"IL","postalCode":"60621"},"position":{"latitude":41.763181195,"longitude":-87.644215021},"status":"active","meta":{"lastUpdated":"2023-03-24T19:59:26.954Z"}}
{"resourceType":"Location","id":"175","identifier":[{"value":"B1B4D714-C2CA-4C93-8FA1-A2A6FF28A9C1"},{"value":"1377515539"}],"name":"FOODSMART","address":{"line":["3415 W DIVERSEY AVE"],"city":"LOGAN SQUARE","state":"IL","postalCode":"60647"},"position":{"latitude":41.9318527752,"longitude":-87.7129012497},"status":"active","meta":{"lastUpdated":"2023-03-24T19:59:26.988Z"}}
{"resourceType":"Location","id":"176","identifier":[{"value":"686EA33F-AE9D-41A9-92A7-471A2CAF1FDA"},{"value":"1377515539"}],"name":"FOODSMART","address":{"line":["2901 W ARMITAGE AVE"],"city":"LOGAN SQUARE","state":"IL","postalCode":"60647"},"position":{"latitude":41.9173585451,"longitude":-87.6993410687},"status":"active","meta":{"lastUpdated":"2023-03-24T19:59:27.024Z"}}
{"resourceType":"Location","id":"177","identifier":[{"value":"C49ECB58-FF18-44F1-9442-56873B97E0BB"},{"value":"1377515539"}],"name":"FRESH BUY FOODS INC","address":{"line":["6319 S VERNON AVE"],"city":"WOODLAWN","state":"IL","postalCode":"60637"},"position":{"latitude":41.7796646515,"longitude":-87.6142509361},"status":"active","meta":{"lastUpdated":"2023-03-24T19:59:27.025Z"}}
{"resourceType":"Location","id":"178","identifier":[{"value":"65794AC0-5FC0-4108-9C19-6832AA68B9B1"},{"value":"1377515539"}],"name":"FRESH FARMS INTERNATIONAL","address":{"line":["2626 W DEVON AVE"],"city":"WEST RIDGE","state":"IL","postalCode":"60659"},"position":{"latitude":41.9977359091,"longitude":-87.6959288805},"status":"active","meta":{"lastUpdated":"2023-03-24T19:59:27.026Z"}}
{"resourceType":"Location","id":"179","identifier":[{"value":"C1DC7247-8B0C-412F-BCBD-5054E0725D83"},{"value":"1377515539"}],"name":"FRESH MARKET PLACE","address":{"line":["2600 N CENTRAL AVE"],"city":"BELMONT CRAGIN","state":"IL","postalCode":"60639"},"position":{"latitude":41.9276476796,"longitude":-87.7662665211},"status":"active","meta":{"lastUpdated":"2023-03-24T19:59:27.028Z"}}
{"resourceType":"Location","id":"180","identifier":[{"value":"B54F0666-6C95-4A39-8F0F-AA161B4303C1"},{"value":"1377515539"}],"name":"FRUTERIA EL MERCADO","address":{"line":["2759 S SPAULDING AVE"],"city":"SOUTH LAWNDALE","state":"IL","postalCode":"60623"},"position":{"latitude":41.8409331636,"longitude":-87.7072241769},"status":"active","meta":{"lastUpdated":"2023-03-24T19:59:27.058Z"}}
{"resourceType":"Location","id":"181","identifier":[{"value":"55F438BD-AF25-4F59-8861-038DF10968FA"},{"value":"1377515539"}],"name":"FURTERIA EL SERRANITO","address":{"line":["1755 W 38TH ST"],"city":"MCKINLEY PARK","state":"IL","postalCode":"60609"},"position":{"latitude":41.8248606245,"longitude":-87.6700230192},"status":"active","meta":{"lastUpdated":"2023-03-24T19:59:27.058Z"}}
{"resourceType":"Location","id":"182","identifier":[{"value":"2092DF55-13C3-4BDC-8911-BDB4A462C837"},{"value":"1377515539"}],"name":"GAYTAN GROCERY STORE","address":{"line":["2802 S KOLIN AVE"],"city":"SOUTH LAWNDALE","state":"IL","postalCode":"60623"},"position":{"latitude":41.8403086304,"longitude":-87.733107059},"status":"active","meta":{"lastUpdated":"2023-03-24T19:59:27.087Z"}}
{"resourceType":"Location","id":"183","identifier":[{"value":"450D28A0-CF28-4FDF-BAB9-0F65985C5976"},{"value":"1377515539"}],"name":"GEMELOS FOOD/ CHECK CASHING SERVICES","address":{"line":["4300 S MOZART ST"],"city":"BRIGHTON PARK","state":"IL","postalCode":"60632"},"position":{"latitude":41.815432001,"longitude":-87.69579779},"status":"active","meta":{"lastUpdated":"2023-03-24T19:59:27.093Z"}}
{"resourceType":"Location","id":"184","identifier":[{"value":"BFDC117E-150C-4C91-883B-EE2EA9CF65B8"},{"value":"1377515539"}],"name":"GENE'S SAUSAGE SHOP & DELI INC","address":{"line":["5330 W BELMONT AVE"],"city":"PORTAGE PARK","state":"IL","postalCode":"60641"},"position":{"latitude":41.9387619658,"longitude":-87.7604070714},"status":"active","meta":{"lastUpdated":"2023-03-24T19:59:27.096Z"}}
{"resourceType":"Location","id":"185","identifier":[{"value":"F887E74A-C201-4185-9E85-0BFD2A670DBC"},{"value":"1377515539"}],"name":"GENES SAUSAGE SHOP AT DELI MEYER","address":{"line":["4746 N LINCOLN AVE"],"city":"LINCOLN SQUARE","state":"IL","postalCode":"60625"},"position":{"latitude":41.9677536575,"longitude":-87.6881717161},"status":"active","meta":{"lastUpdated":"2023-03-24T19:59:27.100Z"}}
{"resourceType":"Location","id":"186","identifier":[{"value":"33353A6A-344A-4200-A54D-92DC7791ED6B"},{"value":"1377515539"}],"name":"GILMART'S  FOOD & LIQUOR","address":{"line":["5044 S ARCHER AVE"],"city":"ARCHER HEIGHTS","state":"IL","postalCode":"60632"},"position":{"latitude":41.8014000331,"longitude":-87.7260437419},"status":"active","meta":{"lastUpdated":"2023-03-24T19:59:27.130Z"}}
{"resourceType":"Location","id":"187","identifier":[{"value":"F6FFEBC1-0F0A-429F-89BB-D3611BF8FF58"},{"value":"1377515539"}],"name":"GOLDMORE FOOD","address":{"line":["1949 W 51ST ST"],"city":"NEW CITY","state":"IL","postalCode":"60609"},"position":{"latitude":41.8011278091,"longitude":-87.6740803441},"status":"active","meta":{"lastUpdated":"2023-03-24T19:59:27.131Z"}}
{"resourceType":"Location","id":"188","identifier":[{"value":"FB62E334-164C-43F4-BCC4-4E7DEFA9BDBC"},{"value":"1377515539"}],"name":"GRAND FOOD MARKET","address":{"line":["5202 W GRAND AVE"],"city":"BELMONT CRAGIN","state":"IL","postalCode":"60639"},"position":{"latitude":41.9170677465,"longitude":-87.7560413324},"status":"active","meta":{"lastUpdated":"2023-03-24T19:59:27.285Z"}}
{"resourceType":"Location","id":"189","identifier":[{"value":"498A3F7B-470A-4725-BE7F-EDB452BAE6C5"},{"value":"1377515539"}],"name":"GRAND PALACE SUPERMARKET, INC","address":{"line":["7131 S STATE ST"],"city":"GREATER GRAND CROSSING","state":"IL","postalCode":"60619"},"position":{"latitude":41.7645736329,"longitude":-87.6247399651},"status":"active","meta":{"lastUpdated":"2023-03-24T19:59:27.292Z"}}
{"resourceType":"Location","id":"190","identifier":[{"value":"D28DBCB7-8290-4A69-B6B4-5EE902816EF2"},{"value":"1377515539"}],"name":"H & A FOOD MARKET, INC.","address":{"line":["1007 W 63RD ST"],"city":"ENGLEWOOD","state":"IL","postalCode":"60621"},"position":{"latitude":41.7795645849,"longitude":-87.6499748357},"status":"active","meta":{"lastUpdated":"2023-03-24T19:59:27.288Z"}}
{"resourceType":"Location","id":"191","identifier":[{"value":"CE258E5E-8879-480B-A8D5-E7AFB73D68EE"},{"value":"1377515539"}],"name":"H & Z GROCERY STORE","address":{"line":["3638 W WRIGHTWOOD AVE"],"city":"LOGAN SQUARE","state":"IL","postalCode":"60647"},"position":{"latitude":41.9283452514,"longitude":-87.7186708995},"status":"active","meta":{"lastUpdated":"2023-03-24T19:59:27.289Z"}}
{"resourceType":"Location","id":"192","identifier":[{"value":"4CDC28F1-9F7C-4AB9-BD5B-24848C5CEEDB"},{"value":"1377515539"}],"name":"HALAL MEAT & GROCERY","address":{"line":["1414 W DEVON AVE"],"city":"ROGERS PARK","state":"IL","postalCode":"60660"},"position":{"latitude":41.9982373871,"longitude":-87.6661711005},"status":"active","meta":{"lastUpdated":"2023-03-24T19:59:27.289Z"}}
{"resourceType":"Location","id":"193","identifier":[{"value":"B70129A8-D4D1-452C-A8B0-34EA7814BA34"},{"value":"1377515539"}],"name":"HAPPY FOODS","address":{"line":["6783 N NORTHWEST HWY"],"city":"EDISON PARK","state":"IL","postalCode":"60631"},"position":{"latitude":42.0043992612,"longitude":-87.8184857554},"status":"active","meta":{"lastUpdated":"2023-03-24T19:59:27.296Z"}}
{"resourceType":"Location","id":"194","identifier":[{"value":"268FD01E-0B50-4E1E-80B4-8C6D98E2223B"},{"value":"1377515539"}],"name":"HAPPY FOODS","address":{"line":["6415 N CENTRAL AVE"],"city":"FOREST GLEN","state":"IL","postalCode":"60646"},"position":{"latitude":41.9978600139,"longitude":-87.7634457986},"status":"active","meta":{"lastUpdated":"2023-03-24T19:59:27.343Z"}}
{"resourceType":"Location","id":"195","identifier":[{"value":"2204669B-218B-4EB8-972A-ABAEEF855F4C"},{"value":"1377515539"}],"name":"HARBOR MARKET","address":{"line":["155 N HARBOR DR"],"city":"LOOP","state":"IL","postalCode":"60601"},"position":{"latitude":41.8847505385,"longitude":-87.6156039565},"status":"active","meta":{"lastUpdated":"2023-03-24T19:59:27.352Z"}}
{"resourceType":"Location","id":"196","identifier":[{"value":"7BC08616-AB03-4802-BFA0-6EC9B1D165F6"},{"value":"1377515539"}],"name":"HAREER FOOD & LIQUOR","address":{"line":["5452 S HALSTED ST"],"city":"NEW CITY","state":"IL","postalCode":"60609"},"position":{"latitude":41.7945591033,"longitude":-87.6453134277},"status":"active","meta":{"lastUpdated":"2023-03-24T19:59:27.365Z"}}
{"resourceType":"Location","id":"197","identifier":[{"value":"956A51D1-D94B-4792-AB01-05A11AF299B9"},{"value":"1377515539"}],"name":"HARPER FOODS","address":{"line":["1455 E 57TH ST"],"city":"HYDE PARK","state":"IL","postalCode":"60637"},"position":{"latitude":41.7914105694,"longitude":-87.5895326278},"status":"active","meta":{"lastUpdated":"2023-03-24T19:59:27.360Z"}}
{"resourceType":"Location","id":"198","identifier":[{"value":"D6C7AD63-EB7A-451F-A9C8-2D1F85F2F184"},{"value":"1377515539"}],"name":"HARVESTIME FOODS","address":{"line":["2632 W LAWRENCE AVE"],"city":"LINCOLN SQUARE","state":"IL","postalCode":"60625"},"position":{"latitude":41.9686702259,"longitude":-87.6951627475},"status":"active","meta":{"lastUpdated":"2023-03-24T19:59:27.368Z"}}
{"resourceType":"Location","id":"199","identifier":[{"value":"B1DFE733-5605-4BF6-BEEA-990A21B20200"},{"value":"1377515539"}],"name":"Hegewisch Fruit Market Inc.","address":{"line":["13209 S BALTIMORE AVE"],"city":"HEGEWISCH","state":"IL","postalCode":"60633"},"position":{"latitude":41.6551885903,"longitude":-87.5469994185},"status":"active","meta":{"lastUpdated":"2023-03-24T19:59:27.385Z"}}
{"resourceType":"Location","id":"200","identifier":[{"value":"B2A2F063-E215-4C48-B50F-E86C0F20A8C2"},{"value":"1377515539"}],"name":"HILLTOP LIQUORS MART","address":{"line":["10259 S MICHIGAN AVE"],"city":"ROSELAND","state":"IL","postalCode":"60628"},"position":{"latitude":41.7072479748,"longitude":-87.620056364},"status":"active","meta":{"lastUpdated":"2023-03-24T19:59:27.407Z"}}
{"resourceType":"Location","id":"201","identifier":[{"value":"34E8801F-DDF1-4776-89E5-A37B36A34540"},{"value":"1377515539"}],"name":"HOA NOM CO","address":{"line":["1101 W ARGYLE ST"],"city":"UPTOWN","state":"IL","postalCode":"60640"},"position":{"latitude":41.9731612999,"longitude":-87.6578331796},"status":"active","meta":{"lastUpdated":"2023-03-24T19:59:27.409Z"}}
{"resourceType":"Location","id":"202","identifier":[{"value":"F722E33F-270A-4F1D-AC6D-B49A232E529E"},{"value":"1377515539"}],"name":"HOLLYWOOD TOWER MKT","address":{"line":["5701 N SHERIDAN RD"],"city":"EDGEWATER","state":"IL","postalCode":"60660"},"position":{"latitude":41.985638421,"longitude":-87.6550943233},"status":"active","meta":{"lastUpdated":"2023-03-24T19:59:27.436Z"}}
{"resourceType":"Location","id":"203","identifier":[{"value":"5A758E55-3531-486E-AE79-BE564097DE17"},{"value":"1377515539"}],"name":"HONG KONG MARKET","address":{"line":["520 W 24TH PL"],"city":"ARMOUR SQUARE","state":"IL","postalCode":"60616"},"position":{"latitude":41.8482371659,"longitude":-87.6409555275},"status":"active","meta":{"lastUpdated":"2023-03-24T19:59:27.436Z"}}
{"resourceType":"Location","id":"204","identifier":[{"value":"FF49148B-03BF-4E14-85CA-74B633F61071"},{"value":"1377515539"}],"name":"HYDE PARK PRODUCE, LTD","address":{"line":["1226 E 53RD ST"],"city":"HYDE PARK","state":"IL","postalCode":"60615"},"position":{"latitude":41.7995768022,"longitude":-87.5955129219},"status":"active","meta":{"lastUpdated":"2023-03-24T19:59:27.437Z"}}
{"resourceType":"Location","id":"205","identifier":[{"value":"7FB94FC0-9CAF-426B-A3C8-6A296B4B0255"},{"value":"1377515539"}],"name":"IMPERIAL TOWER MARKET","address":{"line":["4250 N MARINE DR"],"city":"UPTOWN","state":"IL","postalCode":"60613"},"position":{"latitude":41.960019954,"longitude":-87.6469060276},"status":"active","meta":{"lastUpdated":"2023-03-24T19:59:27.438Z"}}
{"resourceType":"Location","id":"206","identifier":[{"value":"F894E09E-9759-4600-975C-9B6E02CF5169"},{"value":"1377515539"}],"name":"INTERNATIONAL FOODS NW INC","address":{"line":["4404 W FULLERTON AVE"],"city":"HERMOSA","state":"IL","postalCode":"60639"},"position":{"latitude":41.9244726356,"longitude":-87.736789505},"status":"active","meta":{"lastUpdated":"2023-03-24T19:59:27.470Z"}}
{"resourceType":"Location","id":"207","identifier":[{"value":"439E67A2-ED45-40D7-8878-8BB4C77E7216"},{"value":"1377515539"}],"name":"INTERNATIONAL SUPERMARKET INC","address":{"line":["4556 S ASHLAND AVE"],"city":"NEW CITY","state":"IL","postalCode":"60609"},"position":{"latitude":41.8105656774,"longitude":-87.6651705169},"status":"active","meta":{"lastUpdated":"2023-03-24T19:59:27.472Z"}}
{"resourceType":"Location","id":"208","identifier":[{"value":"012FC59D-E8AF-4432-AA22-4B1032A53912"},{"value":"1377515539"}],"name":"J & A ORIENTAL FOOD MART","address":{"line":["5755 W FULLERTON AVE"],"city":"BELMONT CRAGIN","state":"IL","postalCode":"60639"},"position":{"latitude":41.9237993545,"longitude":-87.7706332364},"status":"active","meta":{"lastUpdated":"2023-03-24T19:59:27.497Z"}}
{"resourceType":"Location","id":"209","identifier":[{"value":"D51A34CF-4369-4021-913D-3B0DF8085B74"},{"value":"1377515539"}],"name":"J & J EUROPEAN DELI","address":{"line":["5960 W LAWRENCE AVE"],"city":"PORTAGE PARK","state":"IL","postalCode":"60630"},"position":{"latitude":41.9677648001,"longitude":-87.7770202043},"status":"active","meta":{"lastUpdated":"2023-03-24T19:59:27.498Z"}}
{"resourceType":"Location","id":"210","identifier":[{"value":"C400F6AC-DECB-474B-A3A1-FCD4F7CCFF34"},{"value":"1377515539"}],"name":"J AND P FINER FOODS","address":{"line":["3501 W MONTROSE AVE"],"city":"IRVING PARK","state":"IL","postalCode":"60618"},"position":{"latitude":41.9609885935,"longitude":-87.7156463163},"status":"active","meta":{"lastUpdated":"2023-03-24T19:59:27.509Z"}}
{"resourceType":"Location","id":"211","identifier":[{"value":"06943E7D-1B56-48AD-874C-C870A57102FF"},{"value":"1377515539"}],"name":"J K & S FOOD & LIQUOR","address":{"line":["503 W 59TH ST"],"city":"ENGLEWOOD","state":"IL","postalCode":"60621"},"position":{"latitude":41.7870390747,"longitude":-87.6378127282},"status":"active","meta":{"lastUpdated":"2023-03-24T19:59:27.509Z"}}
{"resourceType":"Location","id":"212","identifier":[{"value":"845606CA-F89E-43C9-9E2E-BA8B833D70CE"},{"value":"1377515539"}],"name":"J R GROCERY STORE","address":{"line":["505 E 134TH ST"],"city":"RIVERDALE","state":"IL","postalCode":"60827"},"position":{"latitude":41.6517610645,"longitude":-87.6093666123},"status":"active","meta":{"lastUpdated":"2023-03-24T19:59:27.542Z"}}
{"resourceType":"Location","id":"213","identifier":[{"value":"B9753F36-00C1-4840-A6D4-2655090D709B"},{"value":"1377515539"}],"name":"JAMAICA FOOD & LIQUOR INC","address":{"line":["4252 S COTTAGE GROVE AVE"],"city":"GRAND BOULEVARD","state":"IL","postalCode":"60653"},"position":{"latitude":41.8170297652,"longitude":-87.6068579199},"status":"active","meta":{"lastUpdated":"2023-03-24T19:59:27.545Z"}}
{"resourceType":"Location","id":"214","identifier":[{"value":"F4B86873-C6C8-4763-BDEE-D5198D0A9B3E"},{"value":"1377515539"}],"name":"JARDAN FOOD & LIQUOR","address":{"line":["317 E GARFIELD BLVD"],"city":"WASHINGTON PARK","state":"IL","postalCode":"60637"},"position":{"latitude":41.7943249341,"longitude":-87.6185206053},"status":"active","meta":{"lastUpdated":"2023-03-24T19:59:27.576Z"}}
{"resourceType":"Location","id":"215","identifier":[{"value":"B8B4169A-A46F-4A0F-981B-F7DCC5760CAA"},{"value":"1377515539"}],"name":"JERUSALEM LIQUORS","address":{"line":["3133 W LAWRENCE AVE"],"city":"ALBANY PARK","state":"IL","postalCode":"60625"},"position":{"latitude":41.9683547002,"longitude":-87.7073943249},"status":"active","meta":{"lastUpdated":"2023-03-24T19:59:27.576Z"}}
{"resourceType":"Location","id":"216","identifier":[{"value":"56946CF7-3613-4A43-B08E-4D79A940F911"},{"value":"1377515539"}],"name":"JEWEL FOOD  STORE # 3345","address":{"line":["1224 S WABASH AVE"],"city":"NEAR SOUTH SIDE","state":"IL","postalCode":"60605"},"position":{"latitude":41.8667243541,"longitude":-87.6259611484},"status":"active","meta":{"lastUpdated":"2023-03-24T19:59:27.589Z"}}
{"resourceType":"Location","id":"217","identifier":[{"value":"285C6B9D-7D74-4CC9-9F76-A3640CD06AB6"},{"value":"1377515539"}],"name":"JEWEL FOOD STORE","address":{"line":["11730 S MARSHFIELD AVE"],"city":"MORGAN PARK","state":"IL","postalCode":"60643"},"position":{"latitude":41.6803322053,"longitude":-87.6625846787},"status":"active","meta":{"lastUpdated":"2023-03-24T19:59:27.599Z"}}
{"resourceType":"Location","id":"218","identifier":[{"value":"EC7FCCFA-E74D-4526-AE53-29E8008EE6AF"},{"value":"1377515539"}],"name":"JEWEL FOOD STORE #3030","address":{"line":["7530 S STONY ISLAND AVE"],"city":"SOUTH SHORE","state":"IL","postalCode":"60649"},"position":{"latitude":41.7578056585,"longitude":-87.586268258},"status":"active","meta":{"lastUpdated":"2023-03-24T19:59:27.626Z"}}
{"resourceType":"Location","id":"219","identifier":[{"value":"083BB3DE-FFCE-4BD6-BE5E-702ACD186BA8"},{"value":"1377515539"}],"name":"JEWEL FOOD STORE #3043","address":{"line":["443 E 34TH ST"],"city":"DOUGLAS","state":"IL","postalCode":"60616"},"position":{"latitude":41.8330447382,"longitude":-87.6146113644},"status":"active","meta":{"lastUpdated":"2023-03-24T19:59:27.628Z"}}
{"resourceType":"Location","id":"220","identifier":[{"value":"F986178F-61CF-4582-9534-A90F7A3F7635"},{"value":"1377515539"}],"name":"JEWEL FOOD STORE #3057","address":{"line":["6057 S WESTERN AVE"],"city":"CHICAGO LAWN","state":"IL","postalCode":"60636"},"position":{"latitude":41.7830611377,"longitude":-87.6835988697},"status":"active","meta":{"lastUpdated":"2023-03-24T19:59:27.661Z"}}
{"resourceType":"Location","id":"221","identifier":[{"value":"DC02E5B0-9F7F-4645-9155-6732576003C3"},{"value":"1377515539"}],"name":"JEWEL FOOD STORE #3092","address":{"line":["1655 E 95TH ST"],"city":"SOUTH DEERING","state":"IL","postalCode":"60617"},"position":{"latitude":41.7222631981,"longitude":-87.5829176346},"status":"active","meta":{"lastUpdated":"2023-03-24T19:59:27.661Z"}}
{"resourceType":"Location","id":"222","identifier":[{"value":"650C6BDF-0113-4AEC-A07C-373CD1D96641"},{"value":"1377515539"}],"name":"JEWEL FOOD STORE #3114","address":{"line":["3128 W 103RD ST"],"city":"MOUNT GREENWOOD","state":"IL","postalCode":"60655"},"position":{"latitude":41.7063128446,"longitude":-87.6997671192},"status":"active","meta":{"lastUpdated":"2023-03-24T19:59:27.673Z"}}
{"resourceType":"Location","id":"223","identifier":[{"value":"33201E3D-552E-456D-A489-80CA64D06F55"},{"value":"1377515539"}],"name":"JEWEL FOOD STORE #3139","address":{"line":["3940 E 106TH ST"],"city":"EAST SIDE","state":"IL","postalCode":"60617"},"position":{"latitude":41.7028060951,"longitude":-87.5277040116},"status":"active","meta":{"lastUpdated":"2023-03-24T19:59:27.675Z"}}
{"resourceType":"Location","id":"224","identifier":[{"value":"BE8979BF-1623-4A90-BED1-6558169506E8"},{"value":"1377515539"}],"name":"JEWEL FOOD STORE #3170","address":{"line":["5320 S PULASKI RD"],"city":"WEST ELSDON","state":"IL","postalCode":"60632"},"position":{"latitude":41.7961975914,"longitude":-87.7233918834},"status":"active","meta":{"lastUpdated":"2023-03-24T19:59:27.697Z"}}
{"resourceType":"Location","id":"225","identifier":[{"value":"63BEB908-E8B8-4A5B-90C7-5E490523E961"},{"value":"1377515539"}],"name":"JEWEL FOOD STORE #3176","address":{"line":["9400 S ASHLAND AVE"],"city":"WASHINGTON HEIGHTS","state":"IL","postalCode":"60620"},"position":{"latitude":41.7229412182,"longitude":-87.6628628713},"status":"active","meta":{"lastUpdated":"2023-03-24T19:59:27.698Z"}}
{"resourceType":"Location","id":"226","identifier":[{"value":"F58B5D82-29D9-49B1-ADAD-9D224767316B"},{"value":"1377515539"}],"name":"JEWEL FOOD STORE #3181","address":{"line":["87 W 87TH ST"],"city":"CHATHAM","state":"IL","postalCode":"60620"},"position":{"latitude":41.7361451282,"longitude":-87.626917844},"status":"active","meta":{"lastUpdated":"2023-03-24T19:59:27.722Z"}}
{"resourceType":"Location","id":"227","identifier":[{"value":"99606265-37C2-4A43-BC6B-E7724B5EA3EC"},{"value":"1377515539"}],"name":"JEWEL FOOD STORE #3210","address":{"line":["1210 N CLARK ST"],"city":"NEAR NORTH SIDE","state":"IL","postalCode":"60610"},"position":{"latitude":41.9042652283,"longitude":-87.6316032946},"status":"active","meta":{"lastUpdated":"2023-03-24T19:59:27.723Z"}}
{"resourceType":"Location","id":"228","identifier":[{"value":"800F503B-D817-494D-826C-16CF9D95C937"},{"value":"1377515539"}],"name":"JEWEL FOOD STORE #3224","address":{"line":["6430 W IRVING PARK RD"],"city":"DUNNING","state":"IL","postalCode":"60634"},"position":{"latitude":41.9530102332,"longitude":-87.7877071626},"status":"active","meta":{"lastUpdated":"2023-03-24T19:59:27.738Z"}}
{"resourceType":"Location","id":"229","identifier":[{"value":"3C340EEB-FDCA-4874-8BD9-C37601506078"},{"value":"1377515539"}],"name":"JEWEL FOOD STORE #3241","address":{"line":["1341 N PAULINA ST"],"city":"WEST TOWN","state":"IL","postalCode":"60622"},"position":{"latitude":41.9062437031,"longitude":-87.6698622813},"status":"active","meta":{"lastUpdated":"2023-03-24T19:59:27.739Z"}}
{"resourceType":"Location","id":"230","identifier":[{"value":"975BF4B2-3B77-464C-BE93-D29EEB50ADBA"},{"value":"1377515539"}],"name":"JEWEL FOOD STORE #3282","address":{"line":["4729 N CENTRAL AVE"],"city":"PORTAGE PARK","state":"IL","postalCode":"60630"},"position":{"latitude":41.966797112,"longitude":-87.7672994806},"status":"active","meta":{"lastUpdated":"2023-03-24T19:59:27.758Z"}}
{"resourceType":"Location","id":"231","identifier":[{"value":"2F956565-5FE5-4C72-836D-1A97C884245C"},{"value":"1377515539"}],"name":"JEWEL FOOD STORE #3296","address":{"line":["7342 W FOSTER AVE"],"city":"NORWOOD PARK","state":"IL","postalCode":"60656"},"position":{"latitude":41.9745429477,"longitude":-87.8113468842},"status":"active","meta":{"lastUpdated":"2023-03-24T19:59:27.759Z"}}
{"resourceType":"Location","id":"232","identifier":[{"value":"CB345250-4CA8-4CCD-A5A8-0BA24BD51D8E"},{"value":"1377515539"}],"name":"JEWEL FOOD STORE #3302","address":{"line":["3644 S ARCHER AVE"],"city":"MCKINLEY PARK","state":"IL","postalCode":"60609"},"position":{"latitude":41.8275838968,"longitude":-87.6824544425},"status":"active","meta":{"lastUpdated":"2023-03-24T19:59:27.803Z"}}
{"resourceType":"Location","id":"233","identifier":[{"value":"31E0073E-E829-49A1-98C6-4C2390E0845B"},{"value":"1377515539"}],"name":"JEWEL FOOD STORE #3344","address":{"line":["1220 S ASHLAND AVE"],"city":"NEAR WEST SIDE","state":"IL","postalCode":"60608"},"position":{"latitude":41.8662541761,"longitude":-87.6665241401},"status":"active","meta":{"lastUpdated":"2023-03-24T19:59:27.803Z"}}
{"resourceType":"Location","id":"234","identifier":[{"value":"E8427AB3-3EE6-4A7A-BACC-6555BDAA1CD6"},{"value":"1377515539"}],"name":"JEWEL FOOD STORE #3349","address":{"line":["2520 N NARRAGANSETT AVE"],"city":"BELMONT CRAGIN","state":"IL","postalCode":"60639"},"position":{"latitude":41.9262969563,"longitude":-87.785694824},"status":"active","meta":{"lastUpdated":"2023-03-24T19:59:27.804Z"}}
{"resourceType":"Location","id":"235","identifier":[{"value":"24A8B087-BAA4-4035-88C9-1671BF36C0DC"},{"value":"1377515539"}],"name":"JEWEL FOOD STORE #3368","address":{"line":["550 N STATE ST"],"city":"NEAR NORTH SIDE","state":"IL","postalCode":"60610"},"position":{"latitude":41.8924213661,"longitude":-87.6282348711},"status":"active","meta":{"lastUpdated":"2023-03-24T19:59:27.816Z"}}
{"resourceType":"Location","id":"236","identifier":[{"value":"2C834A00-F83C-46AF-9ECA-8BFAC877AAF3"},{"value":"1377515539"}],"name":"JEWEL FOOD STORE #3407","address":{"line":["5516 N CLARK ST"],"city":"EDGEWATER","state":"IL","postalCode":"60640"},"position":{"latitude":41.9821898846,"longitude":-87.668651628},"status":"active","meta":{"lastUpdated":"2023-03-24T19:59:27.835Z"}}
{"resourceType":"Location","id":"237","identifier":[{"value":"DBE0B74A-06C6-417D-BCE5-C722BDE3C484"},{"value":"1377515539"}],"name":"JEWEL FOOD STORE #3441","address":{"line":["2940 N ASHLAND AVE"],"city":"LAKE VIEW","state":"IL","postalCode":"60657"},"position":{"latitude":41.9354720327,"longitude":-87.6686545431},"status":"active","meta":{"lastUpdated":"2023-03-24T19:59:27.838Z"}}
{"resourceType":"Location","id":"238","identifier":[{"value":"57CB1419-A676-417C-AACC-733DA79F36F3"},{"value":"1377515539"}],"name":"JEWEL FOOD STORE #3442","address":{"line":["4042 W FOSTER AVE"],"city":"NORTH PARK","state":"IL","postalCode":"60630"},"position":{"latitude":41.9756241124,"longitude":-87.7298445616},"status":"active","meta":{"lastUpdated":"2023-03-24T19:59:27.878Z"}}
{"resourceType":"Location","id":"239","identifier":[{"value":"A847C9DA-EBC3-4F3B-919A-0782F8D5BBC5"},{"value":"1377515539"}],"name":"JEWEL FOOD STORE #3443","address":{"line":["5343 N BROADWAY"],"city":"EDGEWATER","state":"IL","postalCode":"60640"},"position":{"latitude":41.9794282549,"longitude":-87.6598058547},"status":"active","meta":{"lastUpdated":"2023-03-24T19:59:27.878Z"}}
{"resourceType":"Location","id":"240","identifier":[{"value":"E73C5FFE-47F4-49AC-BBF0-42D56CAD023E"},{"value":"1377515539"}],"name":"JEWEL FOOD STORE #3454","address":{"line":["4250 N LINCOLN AVE"],"city":"NORTH CENTER","state":"IL","postalCode":"60618"},"position":{"latitude":41.959100433,"longitude":-87.6823922417},"status":"active","meta":{"lastUpdated":"2023-03-24T19:59:27.885Z"}}
{"resourceType":"Location","id":"241","identifier":[{"value":"B23EB43E-025B-41D3-A022-334341B1E14E"},{"value":"1377515539"}],"name":"JEWEL FOOD STORE #3455","address":{"line":["4355 N SHERIDAN RD"],"city":"UPTOWN","state":"IL","postalCode":"60613"},"position":{"latitude":41.9613977799,"longitude":-87.6545929748},"status":"active","meta":{"lastUpdated":"2023-03-24T19:59:27.904Z"}}
{"resourceType":"Location","id":"242","identifier":[{"value":"48ACD8F5-7EF4-4F80-835C-6D6B828C2AF0"},{"value":"1377515539"}],"name":"JEWEL FOOD STORE #3470","address":{"line":["3570 N ELSTON AVE"],"city":"AVONDALE","state":"IL","postalCode":"60618"},"position":{"latitude":41.946057604,"longitude":-87.7082301098},"status":"active","meta":{"lastUpdated":"2023-03-24T19:59:27.919Z"}}
{"resourceType":"Location","id":"243","identifier":[{"value":"68DEBAAA-3887-4A06-B695-DD988EED5E1D"},{"value":"1377515539"}],"name":"JEWEL FOOD STORE #3477","address":{"line":["4734 N CUMBERLAND AVE"],"city":"OHARE","state":"IL","postalCode":"60656"},"position":{"latitude":41.9660114013,"longitude":-87.8368311691},"status":"active","meta":{"lastUpdated":"2023-03-24T19:59:27.919Z"}}
{"resourceType":"Location","id":"244","identifier":[{"value":"807716FA-B46E-474F-9CC5-3470FEB1F432"},{"value":"1377515539"}],"name":"JEWEL FOOD STORE #3501","address":{"line":["3400 N WESTERN AVE"],"city":"NORTH CENTER","state":"IL","postalCode":"60618"},"position":{"latitude":41.9431873732,"longitude":-87.6883020207},"status":"active","meta":{"lastUpdated":"2023-03-24T19:59:27.946Z"}}
{"resourceType":"Location","id":"245","identifier":[{"value":"7D6ECE84-E5A0-400E-870A-A11692EBC37B"},{"value":"1377515539"}],"name":"JEWEL FOOD STORE #3514","address":{"line":["3531 N BROADWAY"],"city":"LAKE VIEW","state":"IL","postalCode":"60657"},"position":{"latitude":41.9463846516,"longitude":-87.6465248633},"status":"active","meta":{"lastUpdated":"2023-03-24T19:59:27.946Z"}}
{"resourceType":"Location","id":"246","identifier":[{"value":"459CD85B-7877-444F-9C54-8E395CB8F33F"},{"value":"1377515539"}],"name":"JEWEL FOOD STORE #3721","address":{"line":["6107 S ARCHER AVE"],"city":"GARFIELD RIDGE","state":"IL","postalCode":"60638"},"position":{"latitude":41.7943548532,"longitude":-87.7705271521},"status":"active","meta":{"lastUpdated":"2023-03-24T19:59:27.948Z"}}
{"resourceType":"Location","id":"247","identifier":[{"value":"3F85DFBA-D4FF-404B-BD1D-A068B68DE10F"},{"value":"1377515539"}],"name":"JEWEL FOOD STORES #3262","address":{"line":["4660 W IRVING PARK RD"],"city":"PORTAGE PARK","state":"IL","postalCode":"60641"},"position":{"latitude":41.9535544384,"longitude":-87.7450553112},"status":"active","meta":{"lastUpdated":"2023-03-24T19:59:27.975Z"}}
{"resourceType":"Location","id":"248","identifier":[{"value":"38115BAD-5FAE-4582-98D4-7DCBDB98F81E"},{"value":"1377515539"}],"name":"JEWEL-OSCO #3632","address":{"line":["3630 N SOUTHPORT AVE"],"city":"LAKE VIEW","state":"IL","postalCode":"60613"},"position":{"latitude":41.9480045508,"longitude":-87.6641862307},"status":"active","meta":{"lastUpdated":"2023-03-24T19:59:27.978Z"}}
{"resourceType":"Location","id":"249","identifier":[{"value":"A3799456-BE29-4284-AC22-5324BC4970D4"},{"value":"1377515539"}],"name":"JOE'S FOOD & LIQUOR","address":{"line":["3626 W LAWRENCE AVE"],"city":"ALBANY PARK","state":"IL","postalCode":"60625"},"position":{"latitude":41.968445246,"longitude":-87.7194165758},"status":"active","meta":{"lastUpdated":"2023-03-24T19:59:27.979Z"}}
{"resourceType":"Location","id":"250","identifier":[{"value":"36832E72-D759-4E52-B501-B198095672B8"},{"value":"1377515539"}],"name":"JOE'S FOOD AND LIQUOR DEPOT","address":{"line":["5834 W FULLERTON AVE"],"city":"BELMONT CRAGIN","state":"IL","postalCode":"60639"},"position":{"latitude":41.9239918266,"longitude":-87.7722891067},"status":"active","meta":{"lastUpdated":"2023-03-24T19:59:28.009Z"}}
{"resourceType":"Location","id":"251","identifier":[{"value":"FF74696F-B2D4-4E04-9153-247F6AA00212"},{"value":"1377515539"}],"name":"JOLANTA'S INTERNATIONAL DELI","address":{"line":["5914 W HIGGINS AVE"],"city":"JEFFERSON PARK","state":"IL","postalCode":"60630"},"position":{"latitude":41.9727914969,"longitude":-87.7763718583},"status":"active","meta":{"lastUpdated":"2023-03-24T19:59:28.012Z"}}
{"resourceType":"Location","id":"252","identifier":[{"value":"DD15EDA1-DEF6-4DFB-9EBD-C2199E3AAD1B"},{"value":"1377515539"}],"name":"JOSEPH FOOD MART","address":{"line":["8235 W IRVING PARK RD"],"city":"DUNNING","state":"IL","postalCode":"60634"},"position":{"latitude":41.9520185577,"longitude":-87.8331668434},"status":"active","meta":{"lastUpdated":"2023-03-24T19:59:28.013Z"}}
{"resourceType":"Location","id":"253","identifier":[{"value":"07AB7D70-764D-4300-A50B-8B2CD4D4B3BF"},{"value":"1377515539"}],"name":"K & K FOOD & LIQUOR","address":{"line":["1130 W 51ST ST"],"city":"NEW CITY","state":"IL","postalCode":"60609"},"position":{"latitude":41.8015768439,"longitude":-87.6537884728},"status":"active","meta":{"lastUpdated":"2023-03-24T19:59:28.044Z"}}
{"resourceType":"Location","id":"254","identifier":[{"value":"9F97848A-F60B-4BD1-8C9C-96119576593A"},{"value":"1377515539"}],"name":"K BUENA","address":{"line":["4322 W MARQUETTE RD"],"city":"WEST LAWN","state":"IL","postalCode":"60629"},"position":{"latitude":41.7713833198,"longitude":-87.7309533689},"status":"active","meta":{"lastUpdated":"2023-03-24T19:59:28.046Z"}}
{"resourceType":"Location","id":"255","identifier":[{"value":"4EC36C6A-0E2E-4BC7-9A97-F5957B527999"},{"value":"1377515539"}],"name":"KAMDAR PLAZA INC","address":{"line":["2646 W DEVON AVE"],"city":"WEST RIDGE","state":"IL","postalCode":"60659"},"position":{"latitude":41.9977219015,"longitude":-87.6966411029},"status":"active","meta":{"lastUpdated":"2023-03-24T19:59:28.046Z"}}
{"resourceType":"Location","id":"256","identifier":[{"value":"A89383AA-827D-4FCC-8133-ACE362CD6AC6"},{"value":"1377515539"}],"name":"Kan-Zaman Mart, Inc.","address":{"line":["2005 S MICHIGAN AVE"],"city":"NEAR SOUTH SIDE","state":"IL","postalCode":"60616"},"position":{"latitude":41.855317671,"longitude":-87.6237265152},"status":"active","meta":{"lastUpdated":"2023-03-24T19:59:28.086Z"}}
{"resourceType":"Location","id":"257","identifier":[{"value":"3793B0FE-C215-4068-BB77-A766C4150221"},{"value":"1377515539"}],"name":"KAPS FOODS","address":{"line":["3557 S CALIFORNIA AVE"],"city":"BRIGHTON PARK","state":"IL","postalCode":"60632"},"position":{"latitude":41.8283836447,"longitude":-87.69462017},"status":"active","meta":{"lastUpdated":"2023-03-24T19:59:28.089Z"}}
{"resourceType":"Location","id":"258","identifier":[{"value":"695CF95D-2952-45E6-B5D6-7F99F74CD8AA"},{"value":"1377515539"}],"name":"KEY FOOD LIQUOR","address":{"line":["13355 S INDIANA AVE"],"city":"RIVERDALE","state":"IL","postalCode":"60827"},"position":{"latitude":41.6519728186,"longitude":-87.6170837363},"status":"active","meta":{"lastUpdated":"2023-03-24T19:59:28.095Z"}}
{"resourceType":"Location","id":"259","identifier":[{"value":"F3059ACE-7F37-447C-9C0C-4B515EB7CC34"},{"value":"1377515539"}],"name":"KHALIL FOOD & LIQUOR","address":{"line":["146 W 103RD ST"],"city":"ROSELAND","state":"IL","postalCode":"60628"},"position":{"latitude":41.707218139,"longitude":-87.6277515583},"status":"active","meta":{"lastUpdated":"2023-03-24T19:59:28.121Z"}}
{"resourceType":"Location","id":"260","identifier":[{"value":"E81331B4-DC2A-4F43-A6E1-4CEE46AE3369"},{"value":"1377515539"}],"name":"KING FOOD & LIQUOR","address":{"line":["6858 S HALSTED ST"],"city":"ENGLEWOOD","state":"IL","postalCode":"60621"},"position":{"latitude":41.7689262968,"longitude":-87.644655997},"status":"active","meta":{"lastUpdated":"2023-03-24T19:59:28.128Z"}}
{"resourceType":"Location","id":"261","identifier":[{"value":"00BA504A-8FA2-441D-A7AA-C35AA74431AF"},{"value":"1377515539"}],"name":"KOL TUV KOSHER FOODS INC","address":{"line":["2938 W DEVON AVE"],"city":"WEST RIDGE","state":"IL","postalCode":"60659"},"position":{"latitude":41.9976012808,"longitude":-87.7036126719},"status":"active","meta":{"lastUpdated":"2023-03-24T19:59:28.134Z"}}
{"resourceType":"Location","id":"262","identifier":[{"value":"6FDC0280-1B20-4FC1-95B0-AEE43F59CC06"},{"value":"1377515539"}],"name":"KORDIAN'S MARKET","address":{"line":["6332 W HIGGINS AVE"],"city":"JEFFERSON PARK","state":"IL","postalCode":"60630"},"position":{"latitude":41.9759840467,"longitude":-87.7865613104},"status":"active","meta":{"lastUpdated":"2023-03-24T19:59:28.167Z"}}
{"resourceType":"Location","id":"263","identifier":[{"value":"64A9AB02-1AE4-477E-998A-0BF426D5A9EB"},{"value":"1377515539"}],"name":"KRAKUS DELI,  INC","address":{"line":["5155 W ADDISON ST"],"city":"PORTAGE PARK","state":"IL","postalCode":"60641"},"position":{"latitude":41.9458951009,"longitude":-87.7566458523},"status":"active","meta":{"lastUpdated":"2023-03-24T19:59:28.176Z"}}
{"resourceType":"Location","id":"264","identifier":[{"value":"444F68A2-980C-4261-A373-680659CD9F6E"},{"value":"1377515539"}],"name":"LA CASA DEL PUEBLO INC","address":{"line":["1810 S BLUE ISLAND AVE"],"city":"LOWER WEST SIDE","state":"IL","postalCode":"60608"},"position":{"latitude":41.8574527464,"longitude":-87.6616883311},"status":"active","meta":{"lastUpdated":"2023-03-24T19:59:28.177Z"}}
{"resourceType":"Location","id":"265","identifier":[{"value":"E6C14B8F-1B17-43CB-ACB3-98078A897D67"},{"value":"1377515539"}],"name":"LA CIENEGA SUPER FOOD INC","address":{"line":["10736 S EWING AVE"],"city":"EAST SIDE","state":"IL","postalCode":"60617"},"position":{"latitude":41.6998148465,"longitude":-87.5354268905},"status":"active","meta":{"lastUpdated":"2023-03-24T19:59:28.194Z"}}
{"resourceType":"Location","id":"266","identifier":[{"value":"4B03E5F9-DF61-44B2-A871-859152989025"},{"value":"1377515539"}],"name":"LA FERIA GROCERY","address":{"line":["9704 S COMMERCIAL AVE"],"city":"SOUTH DEERING","state":"IL","postalCode":"60617"},"position":{"latitude":41.7189121563,"longitude":-87.5511742972},"status":"active","meta":{"lastUpdated":"2023-03-24T19:59:28.213Z"}}
{"resourceType":"Location","id":"267","identifier":[{"value":"6EB05E0A-78C0-44F2-ACB7-4B4FDFA4BEDB"},{"value":"1377515539"}],"name":"LA GUERRERENSE","address":{"line":["4149 W ARMITAGE AVE"],"city":"HERMOSA","state":"IL","postalCode":"60639"},"position":{"latitude":41.9170000028,"longitude":-87.7309892645},"status":"active","meta":{"lastUpdated":"2023-03-24T19:59:28.214Z"}}
{"resourceType":"Location","id":"268","identifier":[{"value":"0D223F2F-7731-488F-8687-34D87FCA7D03"},{"value":"1377515539"}],"name":"LA INTERNATIONAL","address":{"line":["4301 S ARCHER AVE"],"city":"BRIGHTON PARK","state":"IL","postalCode":"60632"},"position":{"latitude":41.8153006937,"longitude":-87.7020416008},"status":"active","meta":{"lastUpdated":"2023-03-24T19:59:28.231Z"}}
{"resourceType":"Location","id":"269","identifier":[{"value":"5BCCBE09-8A90-447F-B944-A56E488E41A5"},{"value":"1377515539"}],"name":"LA JALISCIENCE","address":{"line":["3239 W 26TH ST"],"city":"SOUTH LAWNDALE","state":"IL","postalCode":"60623"},"position":{"latitude":41.8443879922,"longitude":-87.7064970959},"status":"active","meta":{"lastUpdated":"2023-03-24T19:59:28.242Z"}}
{"resourceType":"Location","id":"270","identifier":[{"value":"AB74D560-97F7-4783-B68B-4F197F54D7B8"},{"value":"1377515539"}],"name":"LA LOMA \"CARNICERIA Y TAQUERIA\"","address":{"line":["2535 N LARAMIE AVE"],"city":"BELMONT CRAGIN","state":"IL","postalCode":"60639"},"position":{"latitude":41.9270360931,"longitude":-87.756106183},"status":"active","meta":{"lastUpdated":"2023-03-24T19:59:28.243Z"}}
{"resourceType":"Location","id":"271","identifier":[{"value":"B3CBE430-0253-4017-A136-8269FAF78C3B"},{"value":"1377515539"}],"name":"LA MERCED INC","address":{"line":["4335 W 26TH ST"],"city":"SOUTH LAWNDALE","state":"IL","postalCode":"60623"},"position":{"latitude":41.8440327965,"longitude":-87.7324328647},"status":"active","meta":{"lastUpdated":"2023-03-24T19:59:28.264Z"}}
{"resourceType":"Location","id":"272","identifier":[{"value":"9E1A9217-115F-4C77-A8D3-B2C02BFA28EC"},{"value":"1377515539"}],"name":"LA NUEVA IMAGEN GROCERY, INC.","address":{"line":["2459 S MILLARD AVE"],"city":"SOUTH LAWNDALE","state":"IL","postalCode":"60623"},"position":{"latitude":41.8462971046,"longitude":-87.7159164295},"status":"active","meta":{"lastUpdated":"2023-03-24T19:59:28.266Z"}}
{"resourceType":"Location","id":"273","identifier":[{"value":"47F5E9DC-AE00-4FF6-BAA7-A281684FCC1C"},{"value":"1377515539"}],"name":"LA PERLA TAPATIA BAKERY","address":{"line":["4214 W NORTH AVE"],"city":"HUMBOLDT PARK","state":"IL","postalCode":"60639"},"position":{"latitude":41.909919754,"longitude":-87.731971257},"status":"active","meta":{"lastUpdated":"2023-03-24T19:59:28.285Z"}}
{"resourceType":"Location","id":"274","identifier":[{"value":"4EB687B9-AFE4-4380-BBDE-F6A6791C267F"},{"value":"1377515539"}],"name":"LA PLAMA","address":{"line":["4173 S ARCHER AVE"],"city":"BRIGHTON PARK","state":"IL","postalCode":"60632"},"position":{"latitude":41.8175793077,"longitude":-87.6983205863},"status":"active","meta":{"lastUpdated":"2023-03-24T19:59:28.290Z"}}
{"resourceType":"Location","id":"275","identifier":[{"value":"2EB00274-A5B8-4CD8-9440-45A6BE882D3F"},{"value":"1377515539"}],"name":"LA PROVIDENCIA FOOD MART","address":{"line":["1658 W 21ST ST"],"city":"LOWER WEST SIDE","state":"IL","postalCode":"60608"},"position":{"latitude":41.8542193742,"longitude":-87.6684581591},"status":"active","meta":{"lastUpdated":"2023-03-24T19:59:28.307Z"}}
{"resourceType":"Location","id":"276","identifier":[{"value":"F5A7640F-48C1-4E3A-B2F5-DC4066750A13"},{"value":"1377515539"}],"name":"LA UNICA FOOD MART, INC.","address":{"line":["1515 W DEVON AVE"],"city":"EDGEWATER","state":"IL","postalCode":"60660"},"position":{"latitude":41.9979934597,"longitude":-87.6684278857},"status":"active","meta":{"lastUpdated":"2023-03-24T19:59:28.309Z"}}
{"resourceType":"Location","id":"277","identifier":[{"value":"FED00EDE-BC3F-407D-8766-E87E9BA08A62"},{"value":"1377515539"}],"name":"LAKE VIEW FOODS INC","address":{"line":["4106 N SHERIDAN RD"],"city":"UPTOWN","state":"IL","postalCode":"60613"},"position":{"latitude":41.9570402995,"longitude":-87.6547628922},"status":"active","meta":{"lastUpdated":"2023-03-24T19:59:28.334Z"}}
{"resourceType":"Location","id":"278","identifier":[{"value":"B1CF1400-767F-4874-9B04-9E7DE403497E"},{"value":"1377515539"}],"name":"L'APPETITO","address":{"line":["875 N MICHIGAN AVE"],"city":"NEAR NORTH SIDE","state":"IL","postalCode":"60611"},"position":{"latitude":41.8989485417,"longitude":-87.6239749877},"status":"active","meta":{"lastUpdated":"2023-03-24T19:59:28.335Z"}}
{"resourceType":"Location","id":"279","identifier":[{"value":"17446D14-31B0-4EC4-B8BC-5D7EE21E673E"},{"value":"1377515539"}],"name":"LARAMIE BAKERY & DELI","address":{"line":["3232 N HARLEM AVE"],"city":"DUNNING","state":"IL","postalCode":"60634"},"position":{"latitude":41.9389859689,"longitude":-87.8069290648},"status":"active","meta":{"lastUpdated":"2023-03-24T19:59:28.358Z"}}
{"resourceType":"Location","id":"280","identifier":[{"value":"3ADC05C2-4607-4FCB-95C1-74249DD599FB"},{"value":"1377515539"}],"name":"LATIN GROCERY & LIQUOR, INC","address":{"line":["3800 W NORTH AVE"],"city":"HUMBOLDT PARK","state":"IL","postalCode":"60647"},"position":{"latitude":41.9100494194,"longitude":-87.7214580839},"status":"active","meta":{"lastUpdated":"2023-03-24T19:59:28.364Z"}}
{"resourceType":"Location","id":"281","identifier":[{"value":"9EC3AF53-7B5F-4BB5-9DE7-3F8DDE6F0582"},{"value":"1377515539"}],"name":"LAWNDALE FOOD MARKET","address":{"line":["3705 W 16TH ST"],"city":"NORTH LAWNDALE","state":"IL","postalCode":"60623"},"position":{"latitude":41.8588339683,"longitude":-87.7178671863},"status":"active","meta":{"lastUpdated":"2023-03-24T19:59:28.385Z"}}
{"resourceType":"Location","id":"282","identifier":[{"value":"5DDFEE48-46CC-4FC9-BACF-CB6C24DB79DC"},{"value":"1377515539"}],"name":"Laxi Liquor","address":{"line":["6922 W GRAND AVE"],"city":"MONTCLARE","state":"IL","postalCode":"60707"},"position":{"latitude":41.9236807003,"longitude":-87.7986761286},"status":"active","meta":{"lastUpdated":"2023-03-24T19:59:28.391Z"}}
{"resourceType":"Location","id":"283","identifier":[{"value":"D2944287-5455-4100-99AD-6097BD5364F3"},{"value":"1377515539"}],"name":"LEMEN SUN CORP.","address":{"line":["2832 S WENTWORTH AVE"],"city":"ARMOUR SQUARE","state":"IL","postalCode":"60616"},"position":{"latitude":41.8416044818,"longitude":-87.6319155034},"status":"active","meta":{"lastUpdated":"2023-03-24T19:59:28.411Z"}}
{"resourceType":"Location","id":"284","identifier":[{"value":"4CFC2CF4-5B0E-4512-8AD0-C1056BFF5961"},{"value":"1377515539"}],"name":"LINDO MICHOACAN","address":{"line":["3142 W LAWRENCE AVE"],"city":"ALBANY PARK","state":"IL","postalCode":"60625"},"position":{"latitude":41.9685727721,"longitude":-87.7077877013},"status":"active","meta":{"lastUpdated":"2023-03-24T19:59:28.413Z"}}
{"resourceType":"Location","id":"285","identifier":[{"value":"CF5F3BF6-A360-4D0B-B4C9-D500DBCD0368"},{"value":"1377515539"}],"name":"LOGAN CERTIFIED FOODS CORP","address":{"line":["2857 W DIVERSEY AVE"],"city":"LOGAN SQUARE","state":"IL","postalCode":"60647"},"position":{"latitude":41.93197047,"longitude":-87.699931619},"status":"active","meta":{"lastUpdated":"2023-03-24T19:59:28.437Z"}}
{"resourceType":"Location","id":"286","identifier":[{"value":"809F1681-0E8F-4951-903C-D49DAB9340AA"},{"value":"1377515539"}],"name":"LORETO GROCERY","address":{"line":["4600 S FAIRFIELD AVE"],"city":"BRIGHTON PARK","state":"IL","postalCode":"60632"},"position":{"latitude":41.8100014783,"longitude":-87.6931813523},"status":"active","meta":{"lastUpdated":"2023-03-24T19:59:28.439Z"}}
{"resourceType":"Location","id":"287","identifier":[{"value":"036D4AFC-479F-4F3C-BD00-C3EEDDF61E08"},{"value":"1377515539"}],"name":"LOS CUATRO HERMANOS GROCERY","address":{"line":["1858 S ALLPORT ST"],"city":"LOWER WEST SIDE","state":"IL","postalCode":"60608"},"position":{"latitude":41.8562022212,"longitude":-87.6577449724},"status":"active","meta":{"lastUpdated":"2023-03-24T19:59:28.462Z"}}
{"resourceType":"Location","id":"288","identifier":[{"value":"769D30D8-DA10-4258-94A4-A46BD84BC91D"},{"value":"1377515539"}],"name":"LOS POTRILLOS","address":{"line":["3624 W BELMONT AVE"],"city":"AVONDALE","state":"IL","postalCode":"60618"},"position":{"latitude":41.939309516,"longitude":-87.7185399405},"status":"active","meta":{"lastUpdated":"2023-03-24T19:59:28.473Z"}}
{"resourceType":"Location","id":"289","identifier":[{"value":"9D14685F-3DC3-4A8D-BE70-43CAECF8CBC6"},{"value":"1377515539"}],"name":"LOS SAUCES GROCERY","address":{"line":["5852 W DIVERSEY AVE"],"city":"BELMONT CRAGIN","state":"IL","postalCode":"60639"},"position":{"latitude":41.9312882001,"longitude":-87.7732414533},"status":"active","meta":{"lastUpdated":"2023-03-24T19:59:28.491Z"}}
{"resourceType":"Location","id":"290","identifier":[{"value":"74BD2BA3-AFCE-4F43-BFF4-F506441E7C5D"},{"value":"1377515539"}],"name":"LUCIANO'S GROCERY-18TH ST","address":{"line":["1714 W 18TH ST"],"city":"LOWER WEST SIDE","state":"IL","postalCode":"60608"},"position":{"latitude":41.8578565675,"longitude":-87.6694195956},"status":"active","meta":{"lastUpdated":"2023-03-24T19:59:28.492Z"}}
{"resourceType":"Location","id":"291","identifier":[{"value":"CEF8EDE8-A08D-4AE8-8431-1B6AE0DB75B8"},{"value":"1377515539"}],"name":"LUX 2 FOOD & LIQUOR","address":{"line":["7550 S MAY ST"],"city":"AUBURN GRESHAM","state":"IL","postalCode":"60620"},"position":{"latitude":41.7561626996,"longitude":-87.6528196032},"status":"active","meta":{"lastUpdated":"2023-03-24T19:59:28.513Z"}}
{"resourceType":"Location","id":"292","identifier":[{"value":"4732EC45-FC0C-4FA9-8AC3-68A74B128623"},{"value":"1377515539"}],"name":"M & D VARIETY STORE","address":{"line":["1300 W 111TH ST"],"city":"MORGAN PARK","state":"IL","postalCode":"60643"},"position":{"latitude":41.6923196266,"longitude":-87.6546632113},"status":"active","meta":{"lastUpdated":"2023-03-24T19:59:28.519Z"}}
{"resourceType":"Location","id":"293","identifier":[{"value":"B5E70D58-9645-4703-8A12-3D91D90DF1F4"},{"value":"1377515539"}],"name":"M & J LIQUOR & GROCERY","address":{"line":["3654 W LAWRENCE AVE"],"city":"ALBANY PARK","state":"IL","postalCode":"60625"},"position":{"latitude":41.9684345799,"longitude":-87.7204810114},"status":"active","meta":{"lastUpdated":"2023-03-24T19:59:28.534Z"}}
{"resourceType":"Location","id":"294","identifier":[{"value":"1264518E-013A-47C2-97D9-4B1F6D7257CD"},{"value":"1377515539"}],"name":"MACIAS PRODUCE INC.","address":{"line":["8933 S COMMERCIAL AVE"],"city":"SOUTH CHICAGO","state":"IL","postalCode":"60617"},"position":{"latitude":41.7327335949,"longitude":-87.5511727836},"status":"active","meta":{"lastUpdated":"2023-03-24T19:59:28.581Z"}}
{"resourceType":"Location","id":"295","identifier":[{"value":"40262CB9-3FB8-41C6-A66B-1FB6F8A801CC"},{"value":"1377515539"}],"name":"MAKOLA AFRICAN SUPERMARKET #2","address":{"line":["4501 N SHERIDAN RD"],"city":"UPTOWN","state":"IL","postalCode":"60640"},"position":{"latitude":41.9636502775,"longitude":-87.6546221904},"status":"active","meta":{"lastUpdated":"2023-03-24T19:59:28.621Z"}}
{"resourceType":"Location","id":"296","identifier":[{"value":"2C243F9C-0A8D-4441-8856-7069939A7848"},{"value":"1377515539"}],"name":"MANDY'S LIQUOR","address":{"line":["1957 W LAWRENCE AVE"],"city":"LINCOLN SQUARE","state":"IL","postalCode":"60640"},"position":{"latitude":41.9686561373,"longitude":-87.678438479},"status":"active","meta":{"lastUpdated":"2023-03-24T19:59:28.628Z"}}
{"resourceType":"Location","id":"297","identifier":[{"value":"ACB7A057-F255-43E1-A059-545FA81F7737"},{"value":"1377515539"}],"name":"MARIO 'S BUTCHER SHOP FD CNTR","address":{"line":["5817 W MADISON ST"],"city":"AUSTIN","state":"IL","postalCode":"60644"},"position":{"latitude":41.8800449808,"longitude":-87.7704933793},"status":"active","meta":{"lastUpdated":"2023-03-24T19:59:28.630Z"}}
{"resourceType":"Location","id":"298","identifier":[{"value":"0353FE21-22C1-4EF2-A1CF-C8AAD179E252"},{"value":"1377515539"}],"name":"MARKET IN THE PARK","address":{"line":["5050 S LAKE SHORE DR"],"city":"KENWOOD","state":"IL","postalCode":"60615"},"position":{"latitude":41.8028797781,"longitude":-87.5818436939},"status":"active","meta":{"lastUpdated":"2023-03-24T19:59:28.631Z"}}
{"resourceType":"Location","id":"299","identifier":[{"value":"3B860D82-CEBF-45EA-B2C0-93BDD130CC1C"},{"value":"1377515539"}],"name":"MA'S & PA'S GROCERY SNACK SHOP","address":{"line":["804 S CALIFORNIA AVE"],"city":"EAST GARFIELD PARK","state":"IL","postalCode":"60612"},"position":{"latitude":41.8708776439,"longitude":-87.6961668842},"status":"active","meta":{"lastUpdated":"2023-03-24T19:59:28.656Z"}}
{"resourceType":"Location","id":"300","identifier":[{"value":"D05459C3-C2E6-4708-8F18-BA83C51B6386"},{"value":"1377515539"}],"name":"MAYFAIR MARKET PLACE","address":{"line":["4728 N PULASKI RD"],"city":"ALBANY PARK","state":"IL","postalCode":"60630"},"position":{"latitude":41.9672666701,"longitude":-87.7281470478},"status":"active","meta":{"lastUpdated":"2023-03-24T19:59:28.688Z"}}
{"resourceType":"Location","id":"301","identifier":[{"value":"E1694F63-AC8C-4CC1-81C9-72A80CF6C6EA"},{"value":"1377515539"}],"name":"MAYFLOWER FOOD","address":{"line":["2104 S ARCHER AVE"],"city":"ARMOUR SQUARE","state":"IL","postalCode":"60616"},"position":{"latitude":41.8542653039,"longitude":-87.6321895068},"status":"active","meta":{"lastUpdated":"2023-03-24T19:59:28.716Z"}}
{"resourceType":"Location","id":"302","identifier":[{"value":"91572CB4-90F8-446B-9509-BA65DF6EB1B6"},{"value":"1377515539"}],"name":"MEHRAB ZABIHA MEAT & TOBACCO","address":{"line":["2445 W DEVON AVE"],"city":"WEST RIDGE","state":"IL","postalCode":"60659"},"position":{"latitude":41.9975920168,"longitude":-87.6916681219},"status":"active","meta":{"lastUpdated":"2023-03-24T19:59:28.736Z"}}
{"resourceType":"Location","id":"303","identifier":[{"value":"CF8EDBAE-C0B8-4F7A-AD4C-4E1D11C74FFE"},{"value":"1377515539"}],"name":"MELISSA'S FOOD & LIQUORS INC","address":{"line":["3867 W GRAND AVE"],"city":"HUMBOLDT PARK","state":"IL","postalCode":"60651"},"position":{"latitude":41.9050594546,"longitude":-87.7239513845},"status":"active","meta":{"lastUpdated":"2023-03-24T19:59:28.736Z"}}
{"resourceType":"Location","id":"304","identifier":[{"value":"7275CD2F-0E1F-4A03-86C7-02FBA018400A"},{"value":"1377515539"}],"name":"MI MEXICO GROCERY","address":{"line":["2601 W 59TH ST"],"city":"CHICAGO LAWN","state":"IL","postalCode":"60629"},"position":{"latitude":41.7863763432,"longitude":-87.688776514},"status":"active","meta":{"lastUpdated":"2023-03-24T19:59:28.737Z"}}
{"resourceType":"Location","id":"305","identifier":[{"value":"C37A6A11-6725-4F6F-84E8-560841B30E2E"},{"value":"1377515539"}],"name":"MIARA'S CONT'L PASTRY DELI INC","address":{"line":["7051 W ADDISON ST"],"city":"DUNNING","state":"IL","postalCode":"60634"},"position":{"latitude":41.9452338231,"longitude":-87.8029266385},"status":"active","meta":{"lastUpdated":"2023-03-24T19:59:28.758Z"}}
{"resourceType":"Location","id":"306","identifier":[{"value":"1C41EAE1-4EB6-49B4-8905-8379D76F9F9C"},{"value":"1377515539"}],"name":"MICELI'S DELI & FOOD MART","address":{"line":["2448 S OAKLEY AVE"],"city":"LOWER WEST SIDE","state":"IL","postalCode":"60608"},"position":{"latitude":41.847020464,"longitude":-87.6831995522},"status":"active","meta":{"lastUpdated":"2023-03-24T19:59:28.773Z"}}
{"resourceType":"Location","id":"307","identifier":[{"value":"1C575720-E37F-41EF-B5C3-4087179AE018"},{"value":"1377515539"}],"name":"MICHAELS FRESH MARKET","address":{"line":["1300 E 47TH ST"],"city":"KENWOOD","state":"IL","postalCode":"60653"},"position":{"latitude":41.8097727266,"longitude":-87.5949608909},"status":"active","meta":{"lastUpdated":"2023-03-24T19:59:28.829Z"}}
{"resourceType":"Location","id":"308","identifier":[{"value":"136C09B2-7F7E-4B9F-812F-CEBFBAD62FE6"},{"value":"1377515539"}],"name":"MID TOWN FOODS","address":{"line":["3855 W DIVISION ST"],"city":"HUMBOLDT PARK","state":"IL","postalCode":"60651"},"position":{"latitude":41.9025838739,"longitude":-87.7236192485},"status":"active","meta":{"lastUpdated":"2023-03-24T19:59:28.829Z"}}
{"resourceType":"Location","id":"309","identifier":[{"value":"D87068BC-3AFC-4815-9AA3-B116D94328E2"},{"value":"1377515539"}],"name":"MINI MERCADO LA BETANIA","address":{"line":["2800 S TRIPP AVE"],"city":"SOUTH LAWNDALE","state":"IL","postalCode":"60623"},"position":{"latitude":41.8403965367,"longitude":-87.7306750125},"status":"active","meta":{"lastUpdated":"2023-03-24T19:59:28.838Z"}}
{"resourceType":"Location","id":"310","identifier":[{"value":"C0365623-7A6D-4281-AF78-1D0590ACF007"},{"value":"1377515539"}],"name":"MLB FOOD","address":{"line":["613 E 67TH ST"],"city":"WOODLAWN","state":"IL","postalCode":"60637"},"position":{"latitude":41.7729559039,"longitude":-87.6100578109},"status":"active","meta":{"lastUpdated":"2023-03-24T19:59:28.842Z"}}
{"resourceType":"Location","id":"311","identifier":[{"value":"D52B693A-1576-44F0-A583-9D1DC2F5EEDA"},{"value":"1377515539"}],"name":"MOO & OINK INC","address":{"line":["4848 W MADISON ST"],"city":"AUSTIN","state":"IL","postalCode":"60644"},"position":{"latitude":41.8805838854,"longitude":-87.7470529414},"status":"active","meta":{"lastUpdated":"2023-03-24T19:59:28.860Z"}}
{"resourceType":"Location","id":"312","identifier":[{"value":"D499B028-15A2-46B3-8D9A-F20F3D7BE17C"},{"value":"1377515539"}],"name":"MORELIA SUPERMARKET #2, INC.","address":{"line":["4833 W DIVERSEY AVE"],"city":"BELMONT CRAGIN","state":"IL","postalCode":"60639"},"position":{"latitude":41.931406291,"longitude":-87.7479369735},"status":"active","meta":{"lastUpdated":"2023-03-24T19:59:28.878Z"}}
{"resourceType":"Location","id":"313","identifier":[{"value":"07A61915-4C8F-4BFA-BCB7-A8CFB71DB067"},{"value":"1377515539"}],"name":"MORELIA SUPERMARKET, INC.","address":{"line":["7300 N WESTERN AVE"],"city":"WEST RIDGE","state":"IL","postalCode":"60645"},"position":{"latitude":42.0141839829,"longitude":-87.6903783498},"status":"active","meta":{"lastUpdated":"2023-03-24T19:59:28.915Z"}}
{"resourceType":"Location","id":"314","identifier":[{"value":"BA7C17E7-6411-4EFD-89B1-FF70D25041C5"},{"value":"1377515539"}],"name":"MORGAN FOOD CORP LLC","address":{"line":["6600 S MORGAN ST"],"city":"ENGLEWOOD","state":"IL","postalCode":"60621"},"position":{"latitude":41.7741289538,"longitude":-87.6496459973},"status":"active","meta":{"lastUpdated":"2023-03-24T19:59:28.915Z"}}
{"resourceType":"Location","id":"315","identifier":[{"value":"3ACFF68F-8E81-46C8-A600-60583DA2813D"},{"value":"1377515539"}],"name":"MOROLEON FOODS #2 INC.","address":{"line":["4257 S ROCKWELL ST"],"city":"BRIGHTON PARK","state":"IL","postalCode":"60632"},"position":{"latitude":41.8157711158,"longitude":-87.6893858973},"status":"active","meta":{"lastUpdated":"2023-03-24T19:59:28.916Z"}}
{"resourceType":"Location","id":"316","identifier":[{"value":"B121DFAD-1F39-4FDE-9E76-F637D1FB7BE6"},{"value":"1377515539"}],"name":"MORSE FOOD AND MEAT MARKET","address":{"line":["1430 W MORSE AVE"],"city":"ROGERS PARK","state":"IL","postalCode":"60626"},"position":{"latitude":42.0079949199,"longitude":-87.6671741467},"status":"active","meta":{"lastUpdated":"2023-03-24T19:59:28.941Z"}}
{"resourceType":"Location","id":"317","identifier":[{"value":"04F50841-DA13-4F59-9CFF-0CF545EFC71B"},{"value":"1377515539"}],"name":"MOUNSEF INTERNATIONAL","address":{"line":["4738 N KEDZIE AVE"],"city":"ALBANY PARK","state":"IL","postalCode":"60625"},"position":{"latitude":41.9677930872,"longitude":-87.7086027049},"status":"active","meta":{"lastUpdated":"2023-03-24T19:59:28.942Z"}}
{"resourceType":"Location","id":"318","identifier":[{"value":"99E01961-D1B0-4C4B-A68D-5201E8C20FDB"},{"value":"1377515539"}],"name":"MR G'S FOOD & LIQUOR","address":{"line":["332 E 58TH ST"],"city":"WASHINGTON PARK","state":"IL","postalCode":"60637"},"position":{"latitude":41.7894298575,"longitude":-87.6178403398},"status":"active","meta":{"lastUpdated":"2023-03-24T19:59:28.972Z"}}
{"resourceType":"Location","id":"319","identifier":[{"value":"4711BF12-7115-4E17-8E8C-C7A6AB853237"},{"value":"1377515539"}],"name":"MUNCHIES ON LARRABEE","address":{"line":["1012 N LARRABEE ST"],"city":"NEAR NORTH SIDE","state":"IL","postalCode":"60610"},"position":{"latitude":41.9008485875,"longitude":-87.6432555365},"status":"active","meta":{"lastUpdated":"2023-03-24T19:59:29.001Z"}}
{"resourceType":"Location","id":"320","identifier":[{"value":"3E192FBC-18A1-4B8F-9AE7-6D928C43A38C"},{"value":"1377515539"}],"name":"Municipal Foods","address":{"line":["2559 W DIVISION ST"],"city":"WEST TOWN","state":"IL","postalCode":"60622"},"position":{"latitude":41.9028592342,"longitude":-87.6918885843},"status":"active","meta":{"lastUpdated":"2023-03-24T19:59:29.003Z"}}
{"resourceType":"Location","id":"322","identifier":[{"value":"DA502730-B5B0-4FA1-977B-26E0E28820D9"},{"value":"1377515539"}],"name":"NANCE FOOD MART","address":{"line":["10935 S WENTWORTH AVE"],"city":"ROSELAND","state":"IL","postalCode":"60628"},"position":{"latitude":41.6951531575,"longitude":-87.6278202407},"status":"active","meta":{"lastUpdated":"2023-03-24T19:59:29.029Z"}}
{"resourceType":"Location","id":"323","identifier":[{"value":"E39D02EB-1533-449E-ABF4-86BCEBCAB24F"},{"value":"1377515539"}],"name":"NANCY FOODS INC","address":{"line":["12315 S STATE ST"],"city":"WEST PULLMAN","state":"IL","postalCode":"60628"},"position":{"latitude":41.6702523999,"longitude":-87.6222719562},"status":"active","meta":{"lastUpdated":"2023-03-24T19:59:29.034Z"}}
{"resourceType":"Location","id":"324","identifier":[{"value":"A090CAF1-4CF1-408D-8E9E-106EF535126E"},{"value":"1377515539"}],"name":"NATIONAL FRUIT STOP","address":{"line":["3523 W LAWRENCE AVE"],"city":"ALBANY PARK","state":"IL","postalCode":"60625"},"position":{"latitude":41.9682556374,"longitude":-87.7168773813},"status":"active","meta":{"lastUpdated":"2023-03-24T19:59:29.036Z"}}
{"resourceType":"Location","id":"325","identifier":[{"value":"63504999-D35F-407B-ADF4-04048FD5A43F"},{"value":"1377515539"}],"name":"Natural Country Deli","address":{"line":["6452 N MILWAUKEE AVE"],"city":"NORWOOD PARK","state":"IL","postalCode":"60631"},"position":{"latitude":41.9984929696,"longitude":-87.7890953687},"status":"active","meta":{"lastUpdated":"2023-03-24T19:59:29.059Z"}}
{"resourceType":"Location","id":"326","identifier":[{"value":"8F874422-724B-471E-86D0-7A2CB598FFB3"},{"value":"1377515539"}],"name":"NAYAB MART","address":{"line":["2449 W DEVON AVE"],"city":"WEST RIDGE","state":"IL","postalCode":"60659"},"position":{"latitude":41.9975891244,"longitude":-87.6918369148},"status":"active","meta":{"lastUpdated":"2023-03-24T19:59:29.093Z"}}
{"resourceType":"Location","id":"327","identifier":[{"value":"1CC0DFE5-C33A-41AA-B083-7F96A4300ECE"},{"value":"1377515539"}],"name":"NEIL'S FOOD","address":{"line":["7749 S HALSTED ST"],"city":"AUBURN GRESHAM","state":"IL","postalCode":"60620"},"position":{"latitude":41.7528304183,"longitude":-87.6439505248},"status":"active","meta":{"lastUpdated":"2023-03-24T19:59:29.094Z"}}
{"resourceType":"Location","id":"328","identifier":[{"value":"2A7D8F8A-4221-417B-8A50-DC8070C6CD2D"},{"value":"1377515539"}],"name":"NEW LA ESTRELLA FOODS INC.","address":{"line":["3003 W 63RD ST"],"city":"CHICAGO LAWN","state":"IL","postalCode":"60629"},"position":{"latitude":41.7789315569,"longitude":-87.6984170935},"status":"active","meta":{"lastUpdated":"2023-03-24T19:59:29.120Z"}}
{"resourceType":"Location","id":"329","identifier":[{"value":"E9920001-3DC4-45F6-9133-194DCCD68ED0"},{"value":"1377515539"}],"name":"NEW POP-IN","address":{"line":["413 S KEDZIE AVE"],"city":"EAST GARFIELD PARK","state":"IL","postalCode":"60612"},"position":{"latitude":41.8754237451,"longitude":-87.7058203625},"status":"active","meta":{"lastUpdated":"2023-03-24T19:59:29.140Z"}}
{"resourceType":"Location","id":"330","identifier":[{"value":"2BF55C0D-7C8A-4E03-A2D3-8CE36FFB8884"},{"value":"1377515539"}],"name":"NICKEL LIQUOR & MINI MART INC","address":{"line":["3637 W DIVISION ST"],"city":"HUMBOLDT PARK","state":"IL","postalCode":"60651"},"position":{"latitude":41.9026337556,"longitude":-87.7179312389},"status":"active","meta":{"lastUpdated":"2023-03-24T19:59:29.141Z"}}
{"resourceType":"Location","id":"331","identifier":[{"value":"0E8774AA-8EEC-4B3D-8C08-2854300EB5C7"},{"value":"1377515539"}],"name":"NOOR MEAT","address":{"line":["2505 W DEVON AVE"],"city":"WEST RIDGE","state":"IL","postalCode":"60659"},"position":{"latitude":41.9975738059,"longitude":-87.6925485988},"status":"active","meta":{"lastUpdated":"2023-03-24T19:59:29.142Z"}}
{"resourceType":"Location","id":"332","identifier":[{"value":"D5C524DA-15D8-4DD5-9BF3-0277BF20B106"},{"value":"1377515539"}],"name":"NORTHWEST FOOD & LIQUOR","address":{"line":["5170 W NORTH AVE"],"city":"AUSTIN","state":"IL","postalCode":"60639"},"position":{"latitude":41.9096148952,"longitude":-87.7554779679},"status":"active","meta":{"lastUpdated":"2023-03-24T19:59:29.198Z"}}
{"resourceType":"Location","id":"333","identifier":[{"value":"A2E25CE4-18D1-4844-A6AD-F8E20DE18B15"},{"value":"1377515539"}],"name":"OGIES FOOD, INC","address":{"line":["2600 W LITHUANIAN PLAZA CT"],"city":"CHICAGO LAWN","state":"IL","postalCode":"60629"},"position":{"latitude":41.7683658358,"longitude":-87.6883009077},"status":"active","meta":{"lastUpdated":"2023-03-24T19:59:29.203Z"}}
{"resourceType":"Location","id":"334","identifier":[{"value":"C7D62B53-9CE9-4678-9D3F-AFCA6D6B8651"},{"value":"1377515539"}],"name":"OHIO FOOD MART","address":{"line":["5345 W OHIO ST"],"city":"AUSTIN","state":"IL","postalCode":"60644"},"position":{"latitude":41.8910492873,"longitude":-87.7597328373},"status":"active","meta":{"lastUpdated":"2023-03-24T19:59:29.234Z"}}
{"resourceType":"Location","id":"335","identifier":[{"value":"86B98556-2883-4893-A724-E0004A830E02"},{"value":"1377515539"}],"name":"OLD WORLD MARKET","address":{"line":["5129 N BROADWAY"],"city":"UPTOWN","state":"IL","postalCode":"60640"},"position":{"latitude":41.9754753986,"longitude":-87.6596970117},"status":"active","meta":{"lastUpdated":"2023-03-24T19:59:29.234Z"}}
{"resourceType":"Location","id":"336","identifier":[{"value":"8A1708AA-37FA-4FB4-96B5-A8DBECABFB67"},{"value":"1377515539"}],"name":"OLIVE MOUNT MART","address":{"line":["3536 W 63RD ST"],"city":"CHICAGO LAWN","state":"IL","postalCode":"60629"},"position":{"latitude":41.7789401249,"longitude":-87.7118685723},"status":"active","meta":{"lastUpdated":"2023-03-24T19:59:29.235Z"}}
{"resourceType":"Location","id":"337","identifier":[{"value":"136D9D99-9BEB-4FFC-9B19-43809D9C1E92"},{"value":"1377515539"}],"name":"ONE STOP","address":{"line":["4401 W MADISON ST"],"city":"WEST GARFIELD PARK","state":"IL","postalCode":"60624"},"position":{"latitude":41.8804994508,"longitude":-87.735595961},"status":"active","meta":{"lastUpdated":"2023-03-24T19:59:29.255Z"}}
{"resourceType":"Location","id":"338","identifier":[{"value":"8062F801-2917-465E-B6E2-38FD8397696E"},{"value":"1377515539"}],"name":"ONE STOP FOOD & LIQUOR STORE","address":{"line":["4301 S LAKE PARK AVE"],"city":"KENWOOD","state":"IL","postalCode":"60653"},"position":{"latitude":41.8168651481,"longitude":-87.5986888442},"status":"active","meta":{"lastUpdated":"2023-03-24T19:59:29.279Z"}}
{"resourceType":"Location","id":"339","identifier":[{"value":"92740509-08D1-4BA2-96DC-6316847621CA"},{"value":"1377515539"}],"name":"ORIENTAL ASIA MARKET INC.","address":{"line":["4932 N SHERIDAN RD"],"city":"UPTOWN","state":"IL","postalCode":"60640"},"position":{"latitude":41.9725559281,"longitude":-87.6550576698},"status":"active","meta":{"lastUpdated":"2023-03-24T19:59:29.292Z"}}
{"resourceType":"Location","id":"340","identifier":[{"value":"162E622D-564A-4FF4-B9E2-8EC52393E2D3"},{"value":"1377515539"}],"name":"ORLEANS MARKET","address":{"line":["316 W ILLINOIS ST"],"city":"NEAR NORTH SIDE","state":"IL","postalCode":"60610"},"position":{"latitude":41.8908642852,"longitude":-87.6363291879},"status":"active","meta":{"lastUpdated":"2023-03-24T19:59:29.314Z"}}
{"resourceType":"Location","id":"341","identifier":[{"value":"1F7E9FDB-55EB-4ABB-A660-B3D2632C3920"},{"value":"1377515539"}],"name":"OSAMA FOOD MART","address":{"line":["615 E 67TH ST"],"city":"WOODLAWN","state":"IL","postalCode":"60637"},"position":{"latitude":41.7729575221,"longitude":-87.6099733981},"status":"active","meta":{"lastUpdated":"2023-03-24T19:59:29.315Z"}}
{"resourceType":"Location","id":"342","identifier":[{"value":"2279DBA8-C092-4F8A-9902-560298F43D75"},{"value":"1377515539"}],"name":"OUTLET KINGDOM","address":{"line":["3449 S HALSTED ST"],"city":"BRIDGEPORT","state":"IL","postalCode":"60608"},"position":{"latitude":41.8310749437,"longitude":-87.6459711122},"status":"active","meta":{"lastUpdated":"2023-03-24T19:59:29.339Z"}}
{"resourceType":"Location","id":"343","identifier":[{"value":"68E99717-762E-4983-A720-DF2B530126D1"},{"value":"1377515539"}],"name":"P & I FOOD & LIQUOR INC.","address":{"line":["4154 W DIVISION ST"],"city":"HUMBOLDT PARK","state":"IL","postalCode":"60651"},"position":{"latitude":41.9027068139,"longitude":-87.7310180698},"status":"active","meta":{"lastUpdated":"2023-03-24T19:59:29.339Z"}}
{"resourceType":"Location","id":"344","identifier":[{"value":"C800C624-4452-4CA5-B0BD-EACE7906D1D9"},{"value":"1377515539"}],"name":"PAR BIRDIE FOODS","address":{"line":["2234 W DEVON AVE"],"city":"WEST RIDGE","state":"IL","postalCode":"60659"},"position":{"latitude":41.9979009735,"longitude":-87.6863782179},"status":"active","meta":{"lastUpdated":"2023-03-24T19:59:29.355Z"}}
{"resourceType":"Location","id":"345","identifier":[{"value":"739EC082-BB1D-44E7-BFF1-206DC63E7975"},{"value":"1377515539"}],"name":"PARK FOODS OF 71ST STREET,INC.","address":{"line":["2612 W 71ST ST"],"city":"CHICAGO LAWN","state":"IL","postalCode":"60629"},"position":{"latitude":41.7647171389,"longitude":-87.6887509815},"status":"active","meta":{"lastUpdated":"2023-03-24T19:59:29.390Z"}}
{"resourceType":"Location","id":"346","identifier":[{"value":"CF69C499-82AF-4C1A-9353-3C9F64062F4E"},{"value":"1377515539"}],"name":"PARK PACKING OF CHICAGO, INC.","address":{"line":["1544 W 41ST ST"],"city":"NEW CITY","state":"IL","postalCode":"60609"},"position":{"latitude":41.8191594443,"longitude":-87.6642353554},"status":"active","meta":{"lastUpdated":"2023-03-24T19:59:29.411Z"}}
{"resourceType":"Location","id":"347","identifier":[{"value":"37882E62-C446-4B5F-994A-63DD29656AD1"},{"value":"1377515539"}],"name":"PARKSHORE MARKET LTD","address":{"line":["195 N HARBOR DR"],"city":"LOOP","state":"IL","postalCode":"60601"},"position":{"latitude":41.8861772806,"longitude":-87.6155996011},"status":"active","meta":{"lastUpdated":"2023-03-24T19:59:29.440Z"}}
{"resourceType":"Location","id":"348","identifier":[{"value":"F304F95F-FE62-4841-8702-C3F31A33F25C"},{"value":"1377515539"}],"name":"PATEL BROS","address":{"line":["2610 W DEVON AVE"],"city":"WEST RIDGE","state":"IL","postalCode":"60659"},"position":{"latitude":41.9977473006,"longitude":-87.6952511581},"status":"active","meta":{"lastUpdated":"2023-03-24T19:59:29.445Z"}}
{"resourceType":"Location","id":"349","identifier":[{"value":"BA9B2BEC-6521-46D9-8D6C-AD135261D36C"},{"value":"1377515539"}],"name":"PAULINA MARKET","address":{"line":["3501 N LINCOLN AVE"],"city":"LAKE VIEW","state":"IL","postalCode":"60657"},"position":{"latitude":41.9452541584,"longitude":-87.6723897932},"status":"active","meta":{"lastUpdated":"2023-03-24T19:59:29.446Z"}}
{"resourceType":"Location","id":"350","identifier":[{"value":"EAACBD29-FEA5-4BDE-B921-1F867374E169"},{"value":"1377515539"}],"name":"PAULINA SUPER MARKET INC","address":{"line":["7622 N PAULINA ST"],"city":"ROGERS PARK","state":"IL","postalCode":"60626"},"position":{"latitude":42.020087315,"longitude":-87.6732345632},"status":"active","meta":{"lastUpdated":"2023-03-24T19:59:29.446Z"}}
{"resourceType":"Location","id":"351","identifier":[{"value":"C2583170-828A-4B36-B726-3E6D95AA0374"},{"value":"1377515539"}],"name":"PEORIA PACKING LTD","address":{"line":["1300 W LAKE ST"],"city":"NEAR WEST SIDE","state":"IL","postalCode":"60607"},"position":{"latitude":41.88558042,"longitude":-87.6589569108},"status":"active","meta":{"lastUpdated":"2023-03-24T19:59:29.472Z"}}
{"resourceType":"Location","id":"352","identifier":[{"value":"1A13C9E5-370A-4EED-B43F-BA5FEE139D85"},{"value":"1377515539"}],"name":"PERSONAL LIQUORS INC","address":{"line":["4241 W MADISON ST"],"city":"WEST GARFIELD PARK","state":"IL","postalCode":"60624"},"position":{"latitude":41.8805391992,"longitude":-87.7322160373},"status":"active","meta":{"lastUpdated":"2023-03-24T19:59:29.472Z"}}
{"resourceType":"Location","id":"353","identifier":[{"value":"9784BF08-F5B8-4581-9E10-E00AA5D0FDB1"},{"value":"1377515539"}],"name":"PETERSON FOOD MART","address":{"line":["2534 W PETERSON AVE"],"city":"WEST RIDGE","state":"IL","postalCode":"60659"},"position":{"latitude":41.9905852147,"longitude":-87.6935345218},"status":"active","meta":{"lastUpdated":"2023-03-24T19:59:29.515Z"}}
{"resourceType":"Location","id":"354","identifier":[{"value":"8B2E2FE0-B7E8-4ACD-909F-656B1449B16B"},{"value":"1377515539"}],"name":"PETE'S FRESH MARKET","address":{"line":["3448 E 118TH ST"],"city":"HEGEWISCH","state":"IL","postalCode":"60617"},"position":{"latitude":41.6810595555,"longitude":-87.5393675414},"status":"active","meta":{"lastUpdated":"2023-03-24T19:59:29.538Z"}}
{"resourceType":"Location","id":"355","identifier":[{"value":"6272B271-61BA-49B0-B342-D0D522580791"},{"value":"1377515539"}],"name":"PETE'S FRESH SUPERMARKET","address":{"line":["2526 W CERMAK RD"],"city":"SOUTH LAWNDALE","state":"IL","postalCode":"60608"},"position":{"latitude":41.8521006532,"longitude":-87.6890511106},"status":"active","meta":{"lastUpdated":"2023-03-24T19:59:29.539Z"}}
{"resourceType":"Location","id":"356","identifier":[{"value":"5A2BCB64-BD47-4691-80D6-F251C7509A9D"},{"value":"1377515539"}],"name":"PETE'S MARKET","address":{"line":["5724 S KEDZIE AVE"],"city":"GAGE PARK","state":"IL","postalCode":"60629"},"position":{"latitude":41.789112548,"longitude":-87.7035797266},"status":"active","meta":{"lastUpdated":"2023-03-24T19:59:29.540Z"}}
{"resourceType":"Location","id":"357","identifier":[{"value":"64570D15-573D-4773-9D38-4868F2F0CC3D"},{"value":"1377515539"}],"name":"PETE'S MEAT & GROCERY #2","address":{"line":["2001 W 71ST ST"],"city":"WEST ENGLEWOOD","state":"IL","postalCode":"60636"},"position":{"latitude":41.764696121,"longitude":-87.6735927847},"status":"active","meta":{"lastUpdated":"2023-03-24T19:59:29.568Z"}}
{"resourceType":"Location","id":"358","identifier":[{"value":"DCF5836E-3BF7-448C-A6C1-F0543FE51A67"},{"value":"1377515539"}],"name":"PETE'S PRODUCE","address":{"line":["1543 E 87TH ST"],"city":"CALUMET HEIGHTS","state":"IL","postalCode":"60619"},"position":{"latitude":41.7367954576,"longitude":-87.5862725091},"status":"active","meta":{"lastUpdated":"2023-03-24T19:59:29.569Z"}}
{"resourceType":"Location","id":"359","identifier":[{"value":"3CE51AEE-64E8-40B9-A1F1-9CE8942A26FC"},{"value":"1377515539"}],"name":"PETE'S PRODUCE","address":{"line":["1411 W 87TH ST"],"city":"AUBURN GRESHAM","state":"IL","postalCode":"60620"},"position":{"latitude":41.7357448514,"longitude":-87.6587177057},"status":"active","meta":{"lastUpdated":"2023-03-24T19:59:29.601Z"}}
{"resourceType":"Location","id":"360","identifier":[{"value":"4440A387-CF2A-47A1-9F75-06CDA3842DAC"},{"value":"1377515539"}],"name":"POLONIA FOOD MART","address":{"line":["1956 W ARMITAGE AVE"],"city":"LOGAN SQUARE","state":"IL","postalCode":"60622"},"position":{"latitude":41.9178707156,"longitude":-87.6774806152},"status":"active","meta":{"lastUpdated":"2023-03-24T19:59:29.627Z"}}
{"resourceType":"Location","id":"361","identifier":[{"value":"A8DA89EC-7E42-483C-922E-888E6C1476B5"},{"value":"1377515539"}],"name":"POTASH BROS INC","address":{"line":["875 N STATE ST"],"city":"NEAR NORTH SIDE","state":"IL","postalCode":"60610"},"position":{"latitude":41.8988781974,"longitude":-87.6281111483},"status":"active","meta":{"lastUpdated":"2023-03-24T19:59:29.627Z"}}
{"resourceType":"Location","id":"362","identifier":[{"value":"3AAB0306-4F21-415A-8E24-F0AEB7BA1E84"},{"value":"1377515539"}],"name":"POTASH BROS. SUPERMARKET","address":{"line":["1525 N CLARK ST"],"city":"NEAR NORTH SIDE","state":"IL","postalCode":"60610"},"position":{"latitude":41.9101179449,"longitude":-87.6314908914},"status":"active","meta":{"lastUpdated":"2023-03-24T19:59:29.628Z"}}
{"resourceType":"Location","id":"363","identifier":[{"value":"B26256FE-794E-4116-8255-42769D266588"},{"value":"1377515539"}],"name":"PRESTIGE LIQUORS","address":{"line":["7104 S WESTERN AVE"],"city":"CHICAGO LAWN","state":"IL","postalCode":"60636"},"position":{"latitude":41.7644955967,"longitude":-87.6833842675},"status":"active","meta":{"lastUpdated":"2023-03-24T19:59:29.655Z"}}
{"resourceType":"Location","id":"364","identifier":[{"value":"A4AEAE18-BB17-439B-9D86-C615D20B9D08"},{"value":"1377515539"}],"name":"PUERTO RICO FOOD & LIQUORS","address":{"line":["2559 W AUGUSTA BLVD"],"city":"WEST TOWN","state":"IL","postalCode":"60622"},"position":{"latitude":41.8992215766,"longitude":-87.6917381162},"status":"active","meta":{"lastUpdated":"2023-03-24T19:59:29.665Z"}}
{"resourceType":"Location","id":"365","identifier":[{"value":"4D5F6941-71CB-401F-8BB2-487CE9B94CDF"},{"value":"1377515539"}],"name":"QUALITY FOOD ON 71 ST INC","address":{"line":["2557 W 71ST ST"],"city":"CHICAGO LAWN","state":"IL","postalCode":"60629"},"position":{"latitude":41.7645116769,"longitude":-87.687986655},"status":"active","meta":{"lastUpdated":"2023-03-24T19:59:29.703Z"}}
{"resourceType":"Location","id":"366","identifier":[{"value":"217485EA-BFC4-4C8A-A3DE-59102BBABED0"},{"value":"1377515539"}],"name":"QUICK STOP FOOD MART","address":{"line":["2751 W PRATT BLVD"],"city":"WEST RIDGE","state":"IL","postalCode":"60645"},"position":{"latitude":42.0047500731,"longitude":-87.6994227766},"status":"active","meta":{"lastUpdated":"2023-03-24T19:59:29.733Z"}}
{"resourceType":"Location","id":"367","identifier":[{"value":"30B41B1B-7CE1-4A5F-AC90-77A1C8FCE973"},{"value":"1377515539"}],"name":"QUINTESSENCE","address":{"line":["1532 N PULASKI RD"],"city":"HUMBOLDT PARK","state":"IL","postalCode":"60651"},"position":{"latitude":41.909107755,"longitude":-87.7266341469},"status":"active","meta":{"lastUpdated":"2023-03-24T19:59:29.735Z"}}
{"resourceType":"Location","id":"368","identifier":[{"value":"9EDB9852-E806-4F81-BD73-4C0DFA662B3A"},{"value":"1377515539"}],"name":"R & S DISCOUNT FOOD, WINE, & LIQUOR","address":{"line":["2425 W DIVERSEY AVE"],"city":"LOGAN SQUARE","state":"IL","postalCode":"60647"},"position":{"latitude":41.932046851,"longitude":-87.6889786863},"status":"active","meta":{"lastUpdated":"2023-03-24T19:59:29.756Z"}}
{"resourceType":"Location","id":"369","identifier":[{"value":"B94D5E95-8AB7-404F-8642-68F96CCC6D72"},{"value":"1377515539"}],"name":"RAINBOW FINER FOOD & LIQUOR","address":{"line":["6316 S ASHLAND AVE"],"city":"WEST ENGLEWOOD","state":"IL","postalCode":"60636"},"position":{"latitude":41.7789224055,"longitude":-87.6643526811},"status":"active","meta":{"lastUpdated":"2023-03-24T19:59:29.768Z"}}
{"resourceType":"Location","id":"370","identifier":[{"value":"94851B19-139B-4B53-BB22-FE74B2EACBA9"},{"value":"1377515539"}],"name":"RAINBOW GROCERY","address":{"line":["2003 W 69TH ST"],"city":"WEST ENGLEWOOD","state":"IL","postalCode":"60636"},"position":{"latitude":41.7683283348,"longitude":-87.673819384},"status":"active","meta":{"lastUpdated":"2023-03-24T19:59:29.777Z"}}
{"resourceType":"Location","id":"371","identifier":[{"value":"3C4143F1-DE30-4570-AD07-9B817E91D806"},{"value":"1377515539"}],"name":"RICH'S DELI & LIQUOR, INC","address":{"line":["857 N WESTERN AVE"],"city":"WEST TOWN","state":"IL","postalCode":"60622"},"position":{"latitude":41.8974609845,"longitude":-87.6867385577},"status":"active","meta":{"lastUpdated":"2023-03-24T19:59:29.795Z"}}
{"resourceType":"Location","id":"372","identifier":[{"value":"3B0B8B1A-BF58-487C-9E62-262A4880BE57"},{"value":"1377515539"}],"name":"RICHWELL MARKET","address":{"line":["1835 S CANAL ST"],"city":"LOWER WEST SIDE","state":"IL","postalCode":"60616"},"position":{"latitude":41.8566571782,"longitude":-87.6387533453},"status":"active","meta":{"lastUpdated":"2023-03-24T19:59:29.820Z"}}
{"resourceType":"Location","id":"373","identifier":[{"value":"A9369050-C485-40B0-A1C1-F78F87323449"},{"value":"1377515539"}],"name":"RIGO'S GROCERY","address":{"line":["2858 S LAWNDALE AVE"],"city":"SOUTH LAWNDALE","state":"IL","postalCode":"60623"},"position":{"latitude":41.8389367453,"longitude":-87.7172305546},"status":"active","meta":{"lastUpdated":"2023-03-24T19:59:29.835Z"}}
{"resourceType":"Location","id":"374","identifier":[{"value":"EAC986E5-1FB8-408E-97A9-A60540A765A9"},{"value":"1377515539"}],"name":"RIO GRANDE FRUIT MARKET, INC.","address":{"line":["3501 W NORTH AVE"],"city":"HUMBOLDT PARK","state":"IL","postalCode":"60647"},"position":{"latitude":41.9099107051,"longitude":-87.7143855102},"status":"active","meta":{"lastUpdated":"2023-03-24T19:59:29.876Z"}}
{"resourceType":"Location","id":"375","identifier":[{"value":"EF8E862B-9276-4647-90CB-34AF5CFFE944"},{"value":"1377515539"}],"name":"RITE PRICE FOOD","address":{"line":["5606 W DIVISION ST"],"city":"AUSTIN","state":"IL","postalCode":"60651"},"position":{"latitude":41.9022506897,"longitude":-87.7659509238},"status":"active","meta":{"lastUpdated":"2023-03-24T19:59:29.877Z"}}
{"resourceType":"Location","id":"376","identifier":[{"value":"12F6A8AE-AA55-46CF-8A80-1201600DA456"},{"value":"1377515539"}],"name":"RIVERSIDE DELI","address":{"line":["1656 W CORTLAND ST"],"city":"LOGAN SQUARE","state":"IL","postalCode":"60622"},"position":{"latitude":41.916186115,"longitude":-87.6701349439},"status":"active","meta":{"lastUpdated":"2023-03-24T19:59:29.877Z"}}
{"resourceType":"Location","id":"377","identifier":[{"value":"23DE6907-0740-447C-B099-30A098DABBF5"},{"value":"1377515539"}],"name":"RIVIERA FOODS","address":{"line":["3218 N HARLEM AVE"],"city":"DUNNING","state":"IL","postalCode":"60634"},"position":{"latitude":41.9385912816,"longitude":-87.8069148007},"status":"active","meta":{"lastUpdated":"2023-03-24T19:59:29.904Z"}}
{"resourceType":"Location","id":"378","identifier":[{"value":"BB0F2048-E2D4-4A37-9CBC-6FC1C76D2DEB"},{"value":"1377515539"}],"name":"RJ Liquors","address":{"line":["5640 W FULLERTON AVE"],"city":"BELMONT CRAGIN","state":"IL","postalCode":"60639"},"position":{"latitude":41.9240644164,"longitude":-87.7676604864},"status":"active","meta":{"lastUpdated":"2023-03-24T19:59:29.916Z"}}
{"resourceType":"Location","id":"379","identifier":[{"value":"FA13CA56-FE74-46CA-9978-0DB03D12159F"},{"value":"1377515539"}],"name":"RODRIGUEZ FRUITS & VEGETABLE","address":{"line":["2458 S ST LOUIS AVE"],"city":"SOUTH LAWNDALE","state":"IL","postalCode":"60623"},"position":{"latitude":41.8463298609,"longitude":-87.7125513997},"status":"active","meta":{"lastUpdated":"2023-03-24T19:59:29.929Z"}}
{"resourceType":"Location","id":"380","identifier":[{"value":"161FDCE4-CA17-41C0-ABB6-AA7AA49631A5"},{"value":"1377515539"}],"name":"ROMAN BROS 1 INC","address":{"line":["6978 N CLARK ST"],"city":"ROGERS PARK","state":"IL","postalCode":"60626"},"position":{"latitude":42.0088564722,"longitude":-87.674080374},"status":"active","meta":{"lastUpdated":"2023-03-24T19:59:29.961Z"}}
{"resourceType":"Location","id":"381","identifier":[{"value":"19156785-F443-4388-B7D3-1DBB3E67B2B7"},{"value":"1377515539"}],"name":"ROSE-RIDGE FOODS","address":{"line":["10500 S MICHIGAN AVE"],"city":"ROSELAND","state":"IL","postalCode":"60628"},"position":{"latitude":41.7034152187,"longitude":-87.6208096791},"status":"active","meta":{"lastUpdated":"2023-03-24T19:59:29.962Z"}}
{"resourceType":"Location","id":"382","identifier":[{"value":"31E0E1F6-4908-4BA5-BB38-3D04FB99A820"},{"value":"1377515539"}],"name":"ROYLA BLUE FOODS","address":{"line":["4359 S CAMPBELL AVE"],"city":"BRIGHTON PARK","state":"IL","postalCode":"60632"},"position":{"latitude":41.8139376802,"longitude":-87.686922014},"status":"active","meta":{"lastUpdated":"2023-03-24T19:59:29.962Z"}}
{"resourceType":"Location","id":"383","identifier":[{"value":"E2F30BFC-91E8-40FA-AFC2-109F34EEE885"},{"value":"1377515539"}],"name":"S & K FOOD & LIQUOR, INC.","address":{"line":["7500 S EXCHANGE AVE"],"city":"SOUTH SHORE","state":"IL","postalCode":"60649"},"position":{"latitude":41.7589927618,"longitude":-87.5603778108},"status":"active","meta":{"lastUpdated":"2023-03-24T19:59:29.983Z"}}
{"resourceType":"Location","id":"384","identifier":[{"value":"476D1772-DB4B-45FB-9EFA-06951044C772"},{"value":"1377515539"}],"name":"S & T PROVISION CO INC","address":{"line":["3804 W 111TH ST"],"city":"MOUNT GREENWOOD","state":"IL","postalCode":"60655"},"position":{"latitude":41.6914459103,"longitude":-87.7156731039},"status":"active","meta":{"lastUpdated":"2023-03-24T19:59:30.002Z"}}
{"resourceType":"Location","id":"385","identifier":[{"value":"1009FEF6-F93D-465C-9D44-A42FAD053E93"},{"value":"1377515539"}],"name":"S L PANTRY & GRILL","address":{"line":["4759 N SHERIDAN RD"],"city":"UPTOWN","state":"IL","postalCode":"60640"},"position":{"latitude":41.9690466747,"longitude":-87.654674059},"status":"active","meta":{"lastUpdated":"2023-03-24T19:59:30.011Z"}}
{"resourceType":"Location","id":"386","identifier":[{"value":"ECC028D6-2D8D-4C70-AA0F-778B3B76231B"},{"value":"1377515539"}],"name":"S. S. FOOD & LIQUOR","address":{"line":["2427 N CLARK ST"],"city":"LINCOLN PARK","state":"IL","postalCode":"60614"},"position":{"latitude":41.9263716974,"longitude":-87.6408000783},"status":"active","meta":{"lastUpdated":"2023-03-24T19:59:30.026Z"}}
{"resourceType":"Location","id":"387","identifier":[{"value":"D3DE1461-3937-4B86-8F0D-AF2B4CEA2D1F"},{"value":"1377515539"}],"name":"SAFAH FOOD & LIQUOR INC","address":{"line":["7105 S RACINE AVE"],"city":"ENGLEWOOD","state":"IL","postalCode":"60636"},"position":{"latitude":41.7648964002,"longitude":-87.6539648335},"status":"active","meta":{"lastUpdated":"2023-03-24T19:59:30.031Z"}}
{"resourceType":"Location","id":"388","identifier":[{"value":"9F51DE6B-3CA4-4F16-9789-62CB282E9E66"},{"value":"1377515539"}],"name":"SAHAR INTERNATIONAL SUPERMARKET","address":{"line":["4851 N KEDZIE AVE"],"city":"ALBANY PARK","state":"IL","postalCode":"60625"},"position":{"latitude":41.9699575396,"longitude":-87.7083728782},"status":"active","meta":{"lastUpdated":"2023-03-24T19:59:30.046Z"}}
{"resourceType":"Location","id":"389","identifier":[{"value":"E977660A-7627-458D-A7A7-7438B0D1A39B"},{"value":"1377515539"}],"name":"SAM FOOD AND LIQUOR","address":{"line":["6812 N SHERIDAN RD"],"city":"ROGERS PARK","state":"IL","postalCode":"60626"},"position":{"latitude":42.0059448161,"longitude":-87.6611747511},"status":"active","meta":{"lastUpdated":"2023-03-24T19:59:30.079Z"}}
{"resourceType":"Location","id":"390","identifier":[{"value":"F0EED7E9-7FF9-4C2E-BD10-2941045F278A"},{"value":"1377515539"}],"name":"SANABEL GROCERY & BAKERY","address":{"line":["4213 N KEDZIE AVE"],"city":"IRVING PARK","state":"IL","postalCode":"60618"},"position":{"latitude":41.9579834025,"longitude":-87.7079959151},"status":"active","meta":{"lastUpdated":"2023-03-24T19:59:30.089Z"}}
{"resourceType":"Location","id":"391","identifier":[{"value":"84BCAA33-4F6B-442F-A1FC-B65ABEA733AF"},{"value":"1377515539"}],"name":"SAVE-A-LOT   #856","address":{"line":["5555 W NORTH AVE"],"city":"AUSTIN","state":"IL","postalCode":"60639"},"position":{"latitude":41.9092745667,"longitude":-87.765187785},"status":"active","meta":{"lastUpdated":"2023-03-24T19:59:30.090Z"}}
{"resourceType":"Location","id":"392","identifier":[{"value":"816862D4-B507-48EC-9F80-35F526067F0D"},{"value":"1377515539"}],"name":"SAVE-A-LOT  # 858","address":{"line":["2858 E 83RD ST"],"city":"SOUTH CHICAGO","state":"IL","postalCode":"60617"},"position":{"latitude":41.7447308395,"longitude":-87.5540391375},"status":"active","meta":{"lastUpdated":"2023-03-24T19:59:30.092Z"}}
{"resourceType":"Location","id":"393","identifier":[{"value":"1662C8DD-F05E-4851-A04F-6FAB7AAE0A4C"},{"value":"1377515539"}],"name":"SAVE-A-LOT  #851","address":{"line":["10700 S HALSTED ST"],"city":"MORGAN PARK","state":"IL","postalCode":"60628"},"position":{"latitude":41.6995474147,"longitude":-87.6427519151},"status":"active","meta":{"lastUpdated":"2023-03-24T19:59:30.101Z"}}
{"resourceType":"Location","id":"394","identifier":[{"value":"B46D6797-3631-494A-A026-ACE6064D9627"},{"value":"1377515539"}],"name":"SAVE-A-LOT  #852","address":{"line":["7240 S STONY ISLAND AVE"],"city":"SOUTH SHORE","state":"IL","postalCode":"60649"},"position":{"latitude":41.7630223653,"longitude":-87.5863901619},"status":"active","meta":{"lastUpdated":"2023-03-24T19:59:30.127Z"}}
{"resourceType":"Location","id":"395","identifier":[{"value":"AA4A5BD0-DEE4-4D0C-ACBB-64876B3F74E9"},{"value":"1377515539"}],"name":"SAVE-A-LOT  #859","address":{"line":["420 S PULASKI RD"],"city":"WEST GARFIELD PARK","state":"IL","postalCode":"60624"},"position":{"latitude":41.8745373122,"longitude":-87.7255969017},"status":"active","meta":{"lastUpdated":"2023-03-24T19:59:30.150Z"}}
{"resourceType":"Location","id":"396","identifier":[{"value":"68C6C125-BF28-4761-8FEC-05D5E836B2D7"},{"value":"1377515539"}],"name":"SAVE-A-LOT  #862","address":{"line":["4701 S COTTAGE GROVE AVE"],"city":"KENWOOD","state":"IL","postalCode":"60615"},"position":{"latitude":41.8094892465,"longitude":-87.6064174294},"status":"active","meta":{"lastUpdated":"2023-03-24T19:59:30.158Z"}}
{"resourceType":"Location","id":"397","identifier":[{"value":"A92E6A17-319B-4DD6-8C72-5F29DA326EDB"},{"value":"1377515539"}],"name":"SAVE-A-LOT # 854","address":{"line":["7908 S HALSTED ST"],"city":"AUBURN GRESHAM","state":"IL","postalCode":"60620"},"position":{"latitude":41.7503223874,"longitude":-87.6441824061},"status":"active","meta":{"lastUpdated":"2023-03-24T19:59:30.158Z"}}
{"resourceType":"Location","id":"398","identifier":[{"value":"6BC5F868-C6A9-4015-86C9-E5DA69222819"},{"value":"1377515539"}],"name":"SAVE-A-LOT #860","address":{"line":["4439 W 63RD ST"],"city":"WEST LAWN","state":"IL","postalCode":"60629"},"position":{"latitude":41.7784159744,"longitude":-87.7340575715},"status":"active","meta":{"lastUpdated":"2023-03-24T19:59:30.174Z"}}
{"resourceType":"Location","id":"399","identifier":[{"value":"D4494CA1-B686-4C82-8681-D83597573B2A"},{"value":"1377515539"}],"name":"Save-A-Lot #882","address":{"line":["344 E 63RD ST"],"city":"WASHINGTON PARK","state":"IL","postalCode":"60637"},"position":{"latitude":41.7803216101,"longitude":-87.6171353804},"status":"active","meta":{"lastUpdated":"2023-03-24T19:59:30.183Z"}}
{"resourceType":"Location","id":"400","identifier":[{"value":"F52C28BF-FBC1-463E-AA50-A252F88FD827"},{"value":"1377515539"}],"name":"Save-A-Lot #886","address":{"line":["148 W 79TH ST"],"city":"GREATER GRAND CROSSING","state":"IL","postalCode":"60620"},"position":{"latitude":41.7509837901,"longitude":-87.6289614545},"status":"active","meta":{"lastUpdated":"2023-03-24T19:59:30.195Z"}}
{"resourceType":"Location","id":"401","identifier":[{"value":"5E54D1DF-A93A-49CF-AF10-81F844757F0D"},{"value":"1377515539"}],"name":"SAVEWAY FOOD","address":{"line":["313 E 43RD ST"],"city":"GRAND BOULEVARD","state":"IL","postalCode":"60653"},"position":{"latitude":41.8164863247,"longitude":-87.6191968314},"status":"active","meta":{"lastUpdated":"2023-03-24T19:59:30.213Z"}}
{"resourceType":"Location","id":"402","identifier":[{"value":"66B86148-0837-4081-A968-9863E6DD3304"},{"value":"1377515539"}],"name":"SERRELLI'S FOODS","address":{"line":["6454 W NORTH AVE"],"city":"AUSTIN","state":"IL","postalCode":"60707"},"position":{"latitude":41.909229895,"longitude":-87.7871288207},"status":"active","meta":{"lastUpdated":"2023-03-24T19:59:30.218Z"}}
{"resourceType":"Location","id":"403","identifier":[{"value":"273BE12E-8CAC-496F-AE8A-2DD007CCB843"},{"value":"1377515539"}],"name":"SEVEN ELEVEN","address":{"line":["1425 W MONTROSE AVE"],"city":"LAKE VIEW","state":"IL","postalCode":"60613"},"position":{"latitude":41.9615238247,"longitude":-87.6660398556},"status":"active","meta":{"lastUpdated":"2023-03-24T19:59:30.231Z"}}
{"resourceType":"Location","id":"404","identifier":[{"value":"76709698-0A61-4B91-811E-B50E7F414A34"},{"value":"1377515539"}],"name":"SEVEN NINE ELEVEN FOOD MART, INC.","address":{"line":["4884 S ARCHER AVE"],"city":"ARCHER HEIGHTS","state":"IL","postalCode":"60632"},"position":{"latitude":41.8046211506,"longitude":-87.7199070655},"status":"active","meta":{"lastUpdated":"2023-03-24T19:59:30.246Z"}}
{"resourceType":"Location","id":"405","identifier":[{"value":"282FC290-8202-473C-A932-7542A0EEA250"},{"value":"1377515539"}],"name":"SHOP & SAVE MARKET","address":{"line":["5829 S ARCHER AVE"],"city":"GARFIELD RIDGE","state":"IL","postalCode":"60638"},"position":{"latitude":41.7960196245,"longitude":-87.7596833672},"status":"active","meta":{"lastUpdated":"2023-03-24T19:59:30.252Z"}}
{"resourceType":"Location","id":"406","identifier":[{"value":"5BCC6B0F-2B27-4747-AE3F-FB2D6D716BC2"},{"value":"1377515539"}],"name":"SHOP WISE FOOD","address":{"line":["316 W 103RD ST"],"city":"ROSELAND","state":"IL","postalCode":"60628"},"position":{"latitude":41.7071739515,"longitude":-87.6314024214},"status":"active","meta":{"lastUpdated":"2023-03-24T19:59:30.264Z"}}
{"resourceType":"Location","id":"407","identifier":[{"value":"77A5E0A8-E4EC-4340-AF3C-F54F40B20BD1"},{"value":"1377515539"}],"name":"SOLID GOLD","address":{"line":["3821 W ROOSEVELT RD"],"city":"NORTH LAWNDALE","state":"IL","postalCode":"60624"},"position":{"latitude":41.866119494,"longitude":-87.720927574},"status":"active","meta":{"lastUpdated":"2023-03-24T19:59:30.276Z"}}
{"resourceType":"Location","id":"408","identifier":[{"value":"E7F12EDD-4429-4F9E-879E-2FDDA2755BFC"},{"value":"1377515539"}],"name":"SOUTH SHORE FOOD MARKET INC.","address":{"line":["7501 S JEFFERY BLVD"],"city":"SOUTH SHORE","state":"IL","postalCode":"60649"},"position":{"latitude":41.7587872873,"longitude":-87.5759934845},"status":"active","meta":{"lastUpdated":"2023-03-24T19:59:30.279Z"}}
{"resourceType":"Location","id":"409","identifier":[{"value":"B54B5AF4-2C93-493D-8218-4C748FA82914"},{"value":"1377515539"}],"name":"STANLEY'S","address":{"line":["1558 N ELSTON AVE"],"city":"WEST TOWN","state":"IL","postalCode":"60622"},"position":{"latitude":41.9105746696,"longitude":-87.6622352294},"status":"active","meta":{"lastUpdated":"2023-03-24T19:59:30.301Z"}}
{"resourceType":"Location","id":"410","identifier":[{"value":"ABD0DA3C-05DB-4B95-BF44-28C231050858"},{"value":"1377515539"}],"name":"STEVE FOOD & LIQUOR","address":{"line":["6058 S RACINE AVE"],"city":"WEST ENGLEWOOD","state":"IL","postalCode":"60636"},"position":{"latitude":41.7833341838,"longitude":-87.6547432794},"status":"active","meta":{"lastUpdated":"2023-03-24T19:59:30.311Z"}}
{"resourceType":"Location","id":"411","identifier":[{"value":"1400DECD-E70E-46E1-882C-D4F8D6681C7B"},{"value":"1377515539"}],"name":"STOP & GO FOOD MART","address":{"line":["1622 W MONTEREY AVE"],"city":"MORGAN PARK","state":"IL","postalCode":"60643"},"position":{"latitude":41.6895747692,"longitude":-87.6627231456},"status":"active","meta":{"lastUpdated":"2023-03-24T19:59:30.342Z"}}
{"resourceType":"Location","id":"412","identifier":[{"value":"1D762A3E-643B-4AD7-8962-9D1EE0E785C0"},{"value":"1377515539"}],"name":"STRACK & VAN TIL","address":{"line":["2627 N ELSTON AVE"],"city":"LOGAN SQUARE","state":"IL","postalCode":"60647"},"position":{"latitude":41.929489274,"longitude":-87.6836878249},"status":"active","meta":{"lastUpdated":"2023-03-24T19:59:30.349Z"}}
{"resourceType":"Location","id":"413","identifier":[{"value":"2D31F8B8-1548-4D3A-B815-DFBD424CD1EA"},{"value":"1377515539"}],"name":"SUN LIQUORS","address":{"line":["1101 W GRANVILLE AVE"],"city":"EDGEWATER","state":"IL","postalCode":"60660"},"position":{"latitude":41.9944657079,"longitude":-87.6583928132},"status":"active","meta":{"lastUpdated":"2023-03-24T19:59:30.369Z"}}
{"resourceType":"Location","id":"414","identifier":[{"value":"4A83F7B1-016D-49BB-8E50-803C4302BD62"},{"value":"1377515539"}],"name":"SUNRISE FOOD AND LIQUORS","address":{"line":["3737 W CHICAGO AVE"],"city":"HUMBOLDT PARK","state":"IL","postalCode":"60651"},"position":{"latitude":41.895314759,"longitude":-87.7201998415},"status":"active","meta":{"lastUpdated":"2023-03-24T19:59:30.372Z"}}
{"resourceType":"Location","id":"415","identifier":[{"value":"884A4A8A-FDD4-48CA-A971-FDE9CB770C5F"},{"value":"1377515539"}],"name":"SUPER DOLLAR AND UP 4, INC.","address":{"line":["1604 W 59TH ST"],"city":"WEST ENGLEWOOD","state":"IL","postalCode":"60636"},"position":{"latitude":41.7868526305,"longitude":-87.6646155793},"status":"active","meta":{"lastUpdated":"2023-03-24T19:59:30.392Z"}}
{"resourceType":"Location","id":"416","identifier":[{"value":"3F9A6D67-C1E1-4B49-8A23-929CC4F4ADDF"},{"value":"1377515539"}],"name":"SUPER DOLLAR DISCOUNT","address":{"line":["4801 S ASHLAND AVE"],"city":"NEW CITY","state":"IL","postalCode":"60609"},"position":{"latitude":41.8066939242,"longitude":-87.6647716526},"status":"active","meta":{"lastUpdated":"2023-03-24T19:59:30.397Z"}}
{"resourceType":"Location","id":"417","identifier":[{"value":"823F8C16-AE37-4831-B04E-022F03C301C5"},{"value":"1377515539"}],"name":"SUPER FOOD & LIQUORS, INC.","address":{"line":["1049 W BRYN MAWR AVE"],"city":"EDGEWATER","state":"IL","postalCode":"60660"},"position":{"latitude":41.983563915,"longitude":-87.657146291},"status":"active","meta":{"lastUpdated":"2023-03-24T19:59:30.416Z"}}
{"resourceType":"Location","id":"418","identifier":[{"value":"F06D0916-2696-428D-B9FA-03B359C3C9E1"},{"value":"1377515539"}],"name":"SUPER FURNITURE & FOOD MART","address":{"line":["5257 S ASHLAND AVE"],"city":"NEW CITY","state":"IL","postalCode":"60609"},"position":{"latitude":41.7978225881,"longitude":-87.6645368783},"status":"active","meta":{"lastUpdated":"2023-03-24T19:59:30.429Z"}}
{"resourceType":"Location","id":"419","identifier":[{"value":"A58FF1DE-9202-4732-BC1F-C58DBCE86A79"},{"value":"1377515539"}],"name":"SUPER JIM'S","address":{"line":["5147 W DIVISION ST"],"city":"AUSTIN","state":"IL","postalCode":"60651"},"position":{"latitude":41.9021472222,"longitude":-87.7552393884},"status":"active","meta":{"lastUpdated":"2023-03-24T19:59:30.436Z"}}
{"resourceType":"Location","id":"420","identifier":[{"value":"E6CB65D7-C3CA-4AD8-8504-D3E17E08596C"},{"value":"1377515539"}],"name":"SUPER MAS MARKET","address":{"line":["1422 W 47TH ST"],"city":"NEW CITY","state":"IL","postalCode":"60609"},"position":{"latitude":41.8087654583,"longitude":-87.6611701084},"status":"active","meta":{"lastUpdated":"2023-03-24T19:59:30.439Z"}}
{"resourceType":"Location","id":"421","identifier":[{"value":"E4DF16B3-95AE-4CCD-AD05-B2E233887CF3"},{"value":"1377515539"}],"name":"SUPER MERCADO EL GUERRO","address":{"line":["1701 W 47TH ST"],"city":"NEW CITY","state":"IL","postalCode":"60609"},"position":{"latitude":41.8084712383,"longitude":-87.6674545133},"status":"active","meta":{"lastUpdated":"2023-03-24T19:59:30.462Z"}}
{"resourceType":"Location","id":"422","identifier":[{"value":"7C853291-F284-4FAD-B1E5-3DE76603DF47"},{"value":"1377515539"}],"name":"SUPER MERCADO LA CHIQUITA","address":{"line":["3555 W 26TH ST"],"city":"SOUTH LAWNDALE","state":"IL","postalCode":"60623"},"position":{"latitude":41.8442791237,"longitude":-87.7145537663},"status":"active","meta":{"lastUpdated":"2023-03-24T19:59:30.463Z"}}
{"resourceType":"Location","id":"423","identifier":[{"value":"3A833B08-7A78-4301-A826-22D12398BA1B"},{"value":"1377515539"}],"name":"SUPERIOR NUT & CANDY  CO.I INC.","address":{"line":["1111 W 40TH ST"],"city":"NEW CITY","state":"IL","postalCode":"60609"},"position":{"latitude":41.820957494,"longitude":-87.6537783218},"status":"active","meta":{"lastUpdated":"2023-03-24T19:59:30.482Z"}}
{"resourceType":"Location","id":"424","identifier":[{"value":"FB7E4DDD-3395-428B-8C48-DE1627F7680C"},{"value":"1377515539"}],"name":"SUPERMARKET & TAQUERIA CARO","address":{"line":["4937 W 47TH ST"],"city":"GARFIELD RIDGE","state":"IL","postalCode":"60638"},"position":{"latitude":41.8074608778,"longitude":-87.747060571},"status":"active","meta":{"lastUpdated":"2023-03-24T19:59:30.482Z"}}
{"resourceType":"Location","id":"425","identifier":[{"value":"648AD551-A641-448C-96B8-41AD5CC258E8"},{"value":"1377515539"}],"name":"SUPERMERCADO ALEX","address":{"line":["4134 W 31ST ST"],"city":"SOUTH LAWNDALE","state":"IL","postalCode":"60623"},"position":{"latitude":41.8369472381,"longitude":-87.7281423632},"status":"active","meta":{"lastUpdated":"2023-03-24T19:59:30.504Z"}}
{"resourceType":"Location","id":"426","identifier":[{"value":"D3BB75B2-9435-400D-841C-8CE05573AAFA"},{"value":"1377515539"}],"name":"SUPERMERCADO CHAPALA","address":{"line":["7117 N CLARK ST"],"city":"ROGERS PARK","state":"IL","postalCode":"60626"},"position":{"latitude":42.0119757995,"longitude":-87.6743840578},"status":"active","meta":{"lastUpdated":"2023-03-24T19:59:30.505Z"}}
{"resourceType":"Location","id":"427","identifier":[{"value":"DD1590D5-4770-47F7-9FAD-E4D0A25AF618"},{"value":"1377515539"}],"name":"SUPERMERCADO EL CUBANO INC","address":{"line":["4939 S ASHLAND AVE"],"city":"NEW CITY","state":"IL","postalCode":"60609"},"position":{"latitude":41.803782323,"longitude":-87.6646953279},"status":"active","meta":{"lastUpdated":"2023-03-24T19:59:30.545Z"}}
{"resourceType":"Location","id":"428","identifier":[{"value":"A86E221D-370A-4F47-95A6-5AA81BAFF6FF"},{"value":"1377515539"}],"name":"SUPERMERCADO EL GUERO #10 INC","address":{"line":["4023 S ARCHER AVE"],"city":"BRIGHTON PARK","state":"IL","postalCode":"60632"},"position":{"latitude":41.8205830407,"longitude":-87.693426166},"status":"active","meta":{"lastUpdated":"2023-03-24T19:59:30.547Z"}}
{"resourceType":"Location","id":"429","identifier":[{"value":"0C4038D4-3CB1-4B79-A9BD-6476FCA6EE41"},{"value":"1377515539"}],"name":"SUPERMERCADO EL GUERO NO. 8","address":{"line":["2101 W CERMAK RD"],"city":"LOWER WEST SIDE","state":"IL","postalCode":"60608"},"position":{"latitude":41.8520256918,"longitude":-87.6784122433},"status":"active","meta":{"lastUpdated":"2023-03-24T19:59:30.584Z"}}
{"resourceType":"Location","id":"430","identifier":[{"value":"F66DA6EB-EBF8-48E9-8A65-496FA61BD884"},{"value":"1377515539"}],"name":"SUPERMERCADO EL MEXICANO","address":{"line":["6701 N CLARK ST"],"city":"ROGERS PARK","state":"IL","postalCode":"60626"},"position":{"latitude":42.0035849743,"longitude":-87.6723519319},"status":"active","meta":{"lastUpdated":"2023-03-24T19:59:30.588Z"}}
{"resourceType":"Location","id":"431","identifier":[{"value":"857A904C-B614-4642-9A8E-CA8649B1C756"},{"value":"1377515539"}],"name":"SUPERMERCADO GELA'S","address":{"line":["2701 S LAWNDALE AVE"],"city":"SOUTH LAWNDALE","state":"IL","postalCode":"60623"},"position":{"latitude":41.8424245295,"longitude":-87.7170303155},"status":"active","meta":{"lastUpdated":"2023-03-24T19:59:30.588Z"}}
{"resourceType":"Location","id":"432","identifier":[{"value":"86BD3236-8C66-4E11-B2FA-F54110DF6028"},{"value":"1377515539"}],"name":"SUPERMERCADO GUADALAJARA #2","address":{"line":["2300 S KEDZIE AVE"],"city":"SOUTH LAWNDALE","state":"IL","postalCode":"60623"},"position":{"latitude":41.8498575327,"longitude":-87.7053434771},"status":"active","meta":{"lastUpdated":"2023-03-24T19:59:30.611Z"}}
{"resourceType":"Location","id":"433","identifier":[{"value":"19294CEA-49DB-446E-A741-1768E2175AEA"},{"value":"1377515539"}],"name":"SUPERMERCADO GUERRERO","address":{"line":["3100 W CERMAK RD"],"city":"SOUTH LAWNDALE","state":"IL","postalCode":"60623"},"position":{"latitude":41.8519083675,"longitude":-87.702875989},"status":"active","meta":{"lastUpdated":"2023-03-24T19:59:30.622Z"}}
{"resourceType":"Location","id":"434","identifier":[{"value":"F542A372-3E62-452E-8DD0-A8E69739B493"},{"value":"1377515539"}],"name":"SUPERMERCADO LA CHIQUTIA # 4","address":{"line":["2623 S PULASKI RD"],"city":"SOUTH LAWNDALE","state":"IL","postalCode":"60623"},"position":{"latitude":41.8435348913,"longitude":-87.7243821794},"status":"active","meta":{"lastUpdated":"2023-03-24T19:59:30.623Z"}}
{"resourceType":"Location","id":"435","identifier":[{"value":"069C16A1-BD30-424F-B8DA-B52BE630102F"},{"value":"1377515539"}],"name":"SUPERMERCADO LA VILLA","address":{"line":["5020 W FULLERTON AVE"],"city":"BELMONT CRAGIN","state":"IL","postalCode":"60639"},"position":{"latitude":41.9242727136,"longitude":-87.7521150377},"status":"active","meta":{"lastUpdated":"2023-03-24T19:59:30.665Z"}}
{"resourceType":"Location","id":"436","identifier":[{"value":"81EBCC36-38A6-4E8F-97BB-2256F6439C4E"},{"value":"1377515539"}],"name":"Supermercado Santos","address":{"line":["4045 W 31ST ST"],"city":"SOUTH LAWNDALE","state":"IL","postalCode":"60623"},"position":{"latitude":41.8367499608,"longitude":-87.7261326568},"status":"active","meta":{"lastUpdated":"2023-03-24T19:59:30.680Z"}}
{"resourceType":"Location","id":"437","identifier":[{"value":"624246E6-5D00-49F9-BB1B-EC14775A5E27"},{"value":"1377515539"}],"name":"SUPERMERCADO TEPECOA GUERRERO","address":{"line":["3629 W 63RD ST"],"city":"WEST LAWN","state":"IL","postalCode":"60629"},"position":{"latitude":41.7786847162,"longitude":-87.7142516633},"status":"active","meta":{"lastUpdated":"2023-03-24T19:59:30.681Z"}}
{"resourceType":"Location","id":"438","identifier":[{"value":"436C89D9-0C3A-40D0-B27C-816FDF567732"},{"value":"1377515539"}],"name":"SWEQI FOOD MART, INC.","address":{"line":["4100 W NORTH AVE"],"city":"HUMBOLDT PARK","state":"IL","postalCode":"60639"},"position":{"latitude":41.9099608832,"longitude":-87.7288749604},"status":"active","meta":{"lastUpdated":"2023-03-24T19:59:30.682Z"}}
{"resourceType":"Location","id":"439","identifier":[{"value":"F2A18826-5E34-4BFB-AA6B-FE4E59B58B92"},{"value":"1377515539"}],"name":"SZYMANSKI BROS, INC","address":{"line":["6016 W IRVING RD"],"city":"PORTAGE PARK","state":"IL","postalCode":"60634"},"position":{"latitude":41.9531497374,"longitude":-87.7775174877},"status":"active","meta":{"lastUpdated":"2023-03-24T19:59:30.708Z"}}
{"resourceType":"Location","id":"440","identifier":[{"value":"EB4A40DA-195D-41E3-81B7-5CA75A7F0E7A"},{"value":"1377515539"}],"name":"T & Z MEAT","address":{"line":["3021 N CICERO AVE"],"city":"BELMONT CRAGIN","state":"IL","postalCode":"60641"},"position":{"latitude":41.9358159257,"longitude":-87.7466186972},"status":"active","meta":{"lastUpdated":"2023-03-24T19:59:30.709Z"}}
{"resourceType":"Location","id":"441","identifier":[{"value":"EB6752C5-C26D-48A1-97A1-A50BC6BD94DB"},{"value":"1377515539"}],"name":"TAI NAM CORPORATION","address":{"line":["4925 N BROADWAY"],"city":"UPTOWN","state":"IL","postalCode":"60640"},"position":{"latitude":41.972213557,"longitude":-87.6596091001},"status":"active","meta":{"lastUpdated":"2023-03-24T19:59:30.746Z"}}
{"resourceType":"Location","id":"442","identifier":[{"value":"1F082B34-83B5-4CBB-870D-61284C55985A"},{"value":"1377515539"}],"name":"TAI WAH GROCERY","address":{"line":["2226 S WENTWORTH AVE"],"city":"ARMOUR SQUARE","state":"IL","postalCode":"60616"},"position":{"latitude":41.8521271977,"longitude":-87.6321439957},"status":"active","meta":{"lastUpdated":"2023-03-24T19:59:30.774Z"}}
{"resourceType":"Location","id":"443","identifier":[{"value":"6CAE0111-8381-4045-B870-98EFF4F6903D"},{"value":"1377515539"}],"name":"THE CELLAR","address":{"line":["3106 N HARLEM AVE"],"city":"DUNNING","state":"IL","postalCode":"60634"},"position":{"latitude":41.9366131328,"longitude":-87.8068475211},"status":"active","meta":{"lastUpdated":"2023-03-24T19:59:30.776Z"}}
{"resourceType":"Location","id":"444","identifier":[{"value":"65AB174C-FA29-48BB-9CE3-3225EDE90EFB"},{"value":"1377515539"}],"name":"THE FISH KEG INC","address":{"line":["2233 W HOWARD ST"],"city":"WEST RIDGE","state":"IL","postalCode":"60645"},"position":{"latitude":42.0193947424,"longitude":-87.6860204976},"status":"active","meta":{"lastUpdated":"2023-03-24T19:59:30.799Z"}}
{"resourceType":"Location","id":"445","identifier":[{"value":"BA917455-4F8C-4752-BC8D-F14370A6F171"},{"value":"1377515539"}],"name":"THE MARKET PLACE FOODSTORE","address":{"line":["521 W DIVERSEY PKWY"],"city":"LINCOLN PARK","state":"IL","postalCode":"60614"},"position":{"latitude":41.9327439571,"longitude":-87.6422188452},"status":"active","meta":{"lastUpdated":"2023-03-24T19:59:30.800Z"}}
{"resourceType":"Location","id":"446","identifier":[{"value":"CBA2F6E3-ACD1-499B-82E9-114DF8D140D8"},{"value":"1377515539"}],"name":"THE NEIGHBORHOOD STORE","address":{"line":["8313 S RACINE AVE"],"city":"AUBURN GRESHAM","state":"IL","postalCode":"60620"},"position":{"latitude":41.7427877337,"longitude":-87.6533842508},"status":"active","meta":{"lastUpdated":"2023-03-24T19:59:30.835Z"}}
{"resourceType":"Location","id":"447","identifier":[{"value":"3E55AAFA-F8AC-46CC-90B2-E8F94877DAD9"},{"value":"1377515539"}],"name":"THE PRODUCE CENTER","address":{"line":["5820 N MILWAUKEE AVE"],"city":"NORWOOD PARK","state":"IL","postalCode":"60646"},"position":{"latitude":41.9872696368,"longitude":-87.7785157048},"status":"active","meta":{"lastUpdated":"2023-03-24T19:59:30.866Z"}}
{"resourceType":"Location","id":"448","identifier":[{"value":"4B2CBFFF-9725-41E9-9DE6-1FC845EB2921"},{"value":"1377515539"}],"name":"The Unit","address":{"line":["2523 E 75TH ST"],"city":"SOUTH SHORE","state":"IL","postalCode":"60649"},"position":{"latitude":41.7589223174,"longitude":-87.5628760391},"status":"active","meta":{"lastUpdated":"2023-03-24T19:59:30.872Z"}}
{"resourceType":"Location","id":"449","identifier":[{"value":"92AAE290-9777-47B5-AF50-5A4C83199B34"},{"value":"1377515539"}],"name":"THE WAREHOUSE","address":{"line":["538 W 119TH ST"],"city":"WEST PULLMAN","state":"IL","postalCode":"60628"},"position":{"latitude":41.6779860017,"longitude":-87.6362008551},"status":"active","meta":{"lastUpdated":"2023-03-24T19:59:30.876Z"}}
{"resourceType":"Location","id":"450","identifier":[{"value":"ADC17BE6-EB32-4D8D-9EC0-22D2258DCCB9"},{"value":"1377515539"}],"name":"THREE BROTHER","address":{"line":["900 N FRANCISCO AVE"],"city":"WEST TOWN","state":"IL","postalCode":"60622"},"position":{"latitude":41.8981068159,"longitude":-87.6993783779},"status":"active","meta":{"lastUpdated":"2023-03-24T19:59:30.928Z"}}
{"resourceType":"Location","id":"451","identifier":[{"value":"23D35D99-3A2B-4221-B619-CEE3DCE10270"},{"value":"1377515539"}],"name":"THREE R FOOD","address":{"line":["2712 W MONTROSE AVE"],"city":"ALBANY PARK","state":"IL","postalCode":"60618"},"position":{"latitude":41.961370945,"longitude":-87.6966693474},"status":"active","meta":{"lastUpdated":"2023-03-24T19:59:30.929Z"}}
{"resourceType":"Location","id":"452","identifier":[{"value":"7BDE288D-96E6-466B-B575-C3BA7A4AF249"},{"value":"1377515539"}],"name":"THREE ROOSTERS, INC.","address":{"line":["12247 S HALSTED ST"],"city":"WEST PULLMAN","state":"IL","postalCode":"60628"},"position":{"latitude":41.6709717654,"longitude":-87.6415330496},"status":"active","meta":{"lastUpdated":"2023-03-24T19:59:30.960Z"}}
{"resourceType":"Location","id":"453","identifier":[{"value":"408D78BC-4610-4906-ABFB-B71C9F6E1F6C"},{"value":"1377515539"}],"name":"Three Stars Liquors","address":{"line":["310 N KOSTNER AVE"],"city":"WEST GARFIELD PARK","state":"IL","postalCode":"60624"},"position":{"latitude":41.8858229904,"longitude":-87.7357878114},"status":"active","meta":{"lastUpdated":"2023-03-24T19:59:30.968Z"}}
{"resourceType":"Location","id":"454","identifier":[{"value":"784B22D3-57B1-449A-82E3-230AB3882AEF"},{"value":"1377515539"}],"name":"THRIFTY FOOD","address":{"line":["928 W WILSON AVE"],"city":"UPTOWN","state":"IL","postalCode":"60640"},"position":{"latitude":41.9655577007,"longitude":-87.653559279},"status":"active","meta":{"lastUpdated":"2023-03-24T19:59:30.970Z"}}
{"resourceType":"Location","id":"455","identifier":[{"value":"C92B34E6-B952-47D1-9855-0479A195884C"},{"value":"1377515539"}],"name":"TIERRA CALIENTE MARKET","address":{"line":["1402 N ASHLAND AVE"],"city":"WEST TOWN","state":"IL","postalCode":"60622"},"position":{"latitude":41.9071018181,"longitude":-87.6677396553},"status":"active","meta":{"lastUpdated":"2023-03-24T19:59:30.980Z"}}
{"resourceType":"Location","id":"456","identifier":[{"value":"31E9C7AF-6FF5-462B-836F-544E9B6C1D1A"},{"value":"1377515539"}],"name":"TONY'S FINER FOODS ENTERPRISES, INC.","address":{"line":["3607 W FULLERTON AVE"],"city":"LOGAN SQUARE","state":"IL","postalCode":"60647"},"position":{"latitude":41.924490094,"longitude":-87.717288131},"status":"active","meta":{"lastUpdated":"2023-03-24T19:59:31.011Z"}}
{"resourceType":"Location","id":"457","identifier":[{"value":"CC6F1EA0-CDCA-4BC9-9692-AEBE06B6E756"},{"value":"1377515539"}],"name":"TONY'S FINER FOODS ENTERPRISES, INC.","address":{"line":["4137 N ELSTON AVE"],"city":"IRVING PARK","state":"IL","postalCode":"60618"},"position":{"latitude":41.9561262015,"longitude":-87.7224828263},"status":"active","meta":{"lastUpdated":"2023-03-24T19:59:31.016Z"}}
{"resourceType":"Location","id":"458","identifier":[{"value":"DD18D427-0980-403E-8099-F135E5401EFB"},{"value":"1377515539"}],"name":"TONY'S FINER FOODS ENTERPRISES, INC.","address":{"line":["4608 W BELMONT AVE"],"city":"PORTAGE PARK","state":"IL","postalCode":"60641"},"position":{"latitude":41.9389938243,"longitude":-87.7426989895},"status":"active","meta":{"lastUpdated":"2023-03-24T19:59:31.047Z"}}
{"resourceType":"Location","id":"459","identifier":[{"value":"013119D4-0F6F-4D2B-BAE4-D18003E894AE"},{"value":"1377515539"}],"name":"TONY'S FINER FOODS ENTERPRISES, INC.","address":{"line":["2500 N CENTRAL AVE"],"city":"BELMONT CRAGIN","state":"IL","postalCode":"60639"},"position":{"latitude":41.9258928802,"longitude":-87.7662048258},"status":"active","meta":{"lastUpdated":"2023-03-24T19:59:31.075Z"}}
{"resourceType":"Location","id":"460","identifier":[{"value":"3CA6B837-3469-4D04-9B2F-CF7E75E4F4C6"},{"value":"1377515539"}],"name":"TRADER JOE'S","address":{"line":["3745 N LINCOLN AVE"],"city":"NORTH CENTER","state":"IL","postalCode":"60613"},"position":{"latitude":41.9499611711,"longitude":-87.6756711293},"status":"active","meta":{"lastUpdated":"2023-03-24T19:59:31.076Z"}}
{"resourceType":"Location","id":"461","identifier":[{"value":"F4988FEC-EC92-4CAA-8B1C-C627930EEA6C"},{"value":"1377515539"}],"name":"TRADER JOE'S EAST","address":{"line":["44 E ONTARIO ST"],"city":"NEAR NORTH SIDE","state":"IL","postalCode":"60611"},"position":{"latitude":41.8934080204,"longitude":-87.6264377426},"status":"active","meta":{"lastUpdated":"2023-03-24T19:59:31.077Z"}}
{"resourceType":"Location","id":"462","identifier":[{"value":"1350CCC6-3CBA-4CC9-BAAA-85857AAFC7A9"},{"value":"1377515539"}],"name":"TRADER JOE'S EAST","address":{"line":["1840 N CLYBOURN AVE"],"city":"LINCOLN PARK","state":"IL","postalCode":"60614"},"position":{"latitude":41.9144237141,"longitude":-87.654627843},"status":"active","meta":{"lastUpdated":"2023-03-24T19:59:31.106Z"}}
{"resourceType":"Location","id":"463","identifier":[{"value":"C5CAA511-B350-4596-B3B3-C819C418AE5B"},{"value":"1377515539"}],"name":"TRATTORIA ISABELLA","address":{"line":["217 N JEFFERSON ST"],"city":"NEAR WEST SIDE","state":"IL","postalCode":"60661"},"position":{"latitude":41.8862936679,"longitude":-87.6426439206},"status":"active","meta":{"lastUpdated":"2023-03-24T19:59:31.126Z"}}
{"resourceType":"Location","id":"464","identifier":[{"value":"99377A54-56FD-4FEB-A078-276857AD467D"},{"value":"1377515539"}],"name":"TREASURE ISLAND FOODS","address":{"line":["680 N LAKE SHORE DR"],"city":"NEAR NORTH SIDE","state":"IL","postalCode":"60611"},"position":{"latitude":41.8947983703,"longitude":-87.6158666457},"status":"active","meta":{"lastUpdated":"2023-03-24T19:59:31.169Z"}}
{"resourceType":"Location","id":"465","identifier":[{"value":"356C643F-CE12-4022-BFDB-2D3650E5E757"},{"value":"1377515539"}],"name":"TREASURE ISLAND FOODS","address":{"line":["1639 N WELLS ST"],"city":"LINCOLN PARK","state":"IL","postalCode":"60614"},"position":{"latitude":41.9123117952,"longitude":-87.6345988555},"status":"active","meta":{"lastUpdated":"2023-03-24T19:59:31.176Z"}}
{"resourceType":"Location","id":"466","identifier":[{"value":"938B3260-130B-4414-ACFA-CCC1CBDBD6AD"},{"value":"1377515539"}],"name":"TREASURE ISLAND FOODS","address":{"line":["2121 N CLYBOURN AVE"],"city":"LINCOLN PARK","state":"IL","postalCode":"60614"},"position":{"latitude":41.919899684,"longitude":-87.6618055364},"status":"active","meta":{"lastUpdated":"2023-03-24T19:59:31.199Z"}}
{"resourceType":"Location","id":"467","identifier":[{"value":"19CF3025-EF95-43E8-9720-2FA018BBB0B2"},{"value":"1377515539"}],"name":"TREASURE ISLAND FOODS","address":{"line":["3460 N BROADWAY"],"city":"LAKE VIEW","state":"IL","postalCode":"60657"},"position":{"latitude":41.9448282656,"longitude":-87.6458934884},"status":"active","meta":{"lastUpdated":"2023-03-24T19:59:31.202Z"}}
{"resourceType":"Location","id":"468","identifier":[{"value":"714EE08F-DDF4-4EBD-B9B0-8725838A3941"},{"value":"1377515539"}],"name":"TREASURE ISLAND FOODS INC","address":{"line":["75 W ELM ST"],"city":"NEAR NORTH SIDE","state":"IL","postalCode":"60610"},"position":{"latitude":41.9030261368,"longitude":-87.6313487722},"status":"active","meta":{"lastUpdated":"2023-03-24T19:59:31.212Z"}}
{"resourceType":"Location","id":"469","identifier":[{"value":"B461E317-9910-4F6D-96AE-7F93A25F9B4C"},{"value":"1377515539"}],"name":"TWO BLUE FOODS INC","address":{"line":["702 E 100TH PL"],"city":"PULLMAN","state":"IL","postalCode":"60628"},"position":{"latitude":41.712403787,"longitude":-87.6051275894},"status":"active","meta":{"lastUpdated":"2023-03-24T19:59:31.215Z"}}
{"resourceType":"Location","id":"470","identifier":[{"value":"CC33F418-7739-4C13-9826-DCCC9B9FECB6"},{"value":"1377515539"}],"name":"ULTRA FOODS","address":{"line":["3250 W 87TH ST"],"city":"ASHBURN","state":"IL","postalCode":"60652"},"position":{"latitude":41.7352740895,"longitude":-87.7035112835},"status":"active","meta":{"lastUpdated":"2023-03-24T19:59:31.245Z"}}
{"resourceType":"Location","id":"471","identifier":[{"value":"FDB56C85-9D7C-4BAE-9589-F4A2489A8720"},{"value":"1377515539"}],"name":"VIET HOA PLAZA","address":{"line":["1051 W ARGYLE ST"],"city":"UPTOWN","state":"IL","postalCode":"60640"},"position":{"latitude":41.9731740098,"longitude":-87.6569923349},"status":"active","meta":{"lastUpdated":"2023-03-24T19:59:31.257Z"}}
{"resourceType":"Location","id":"472","identifier":[{"value":"2D7F8E05-0361-474A-A981-0A341C3202AC"},{"value":"1377515539"}],"name":"W & R FOOD & LIQUOR INC","address":{"line":["1717 E 79TH ST"],"city":"SOUTH CHICAGO","state":"IL","postalCode":"60649"},"position":{"latitude":41.7514187003,"longitude":-87.5822058165},"status":"active","meta":{"lastUpdated":"2023-03-24T19:59:31.269Z"}}
{"resourceType":"Location","id":"473","identifier":[{"value":"21F03B8F-65C0-4A9C-9FE4-3935C9213A8D"},{"value":"1377515539"}],"name":"W K R B FOOD & LIQUOR","address":{"line":["9361 S COTTAGE GROVE AVE"],"city":"CHATHAM","state":"IL","postalCode":"60619"},"position":{"latitude":41.7238602893,"longitude":-87.6043647208},"status":"active","meta":{"lastUpdated":"2023-03-24T19:59:31.279Z"}}
{"resourceType":"Location","id":"474","identifier":[{"value":"D5879403-8DF6-41FB-81D0-7D54FC0D740B"},{"value":"1377515539"}],"name":"WALLY'S INTERNATIONAL MARKET","address":{"line":["3256 N MILWAUKEE AVE"],"city":"AVONDALE","state":"IL","postalCode":"60618"},"position":{"latitude":41.9401778125,"longitude":-87.7258584348},"status":"active","meta":{"lastUpdated":"2023-03-24T19:59:31.295Z"}}
{"resourceType":"Location","id":"475","identifier":[{"value":"D63871BD-7969-40F9-931F-1A8887671A4E"},{"value":"1377515539"}],"name":"WALLY'S MARKET INC","address":{"line":["6601 W IRVING PARK RD"],"city":"DUNNING","state":"IL","postalCode":"60634"},"position":{"latitude":41.9527216579,"longitude":-87.7913622126},"status":"active","meta":{"lastUpdated":"2023-03-24T19:59:31.303Z"}}
{"resourceType":"Location","id":"476","identifier":[{"value":"ADB7ADF4-2EC3-4733-B46C-03EACDBC18B1"},{"value":"1377515539"}],"name":"WASHINGTON GROCERY","address":{"line":["4139 W FIFTH AVE"],"city":"WEST GARFIELD PARK","state":"IL","postalCode":"60624"},"position":{"latitude":41.8718636117,"longitude":-87.7290573726},"status":"active","meta":{"lastUpdated":"2023-03-24T19:59:31.344Z"}}
{"resourceType":"Location","id":"477","identifier":[{"value":"78CF6ECB-B517-4FC5-8FBE-4DB3E3669DBB"},{"value":"1377515539"}],"name":"WAY LOW DISCOUNT FOOD, INC.","address":{"line":["1551 S KEDZIE AVE"],"city":"NORTH LAWNDALE","state":"IL","postalCode":"60623"},"position":{"latitude":41.8598459614,"longitude":-87.705338554},"status":"active","meta":{"lastUpdated":"2023-03-24T19:59:31.360Z"}}
{"resourceType":"Location","id":"478","identifier":[{"value":"11E3CD0D-F80A-461C-B9E5-F1ECB9C424BC"},{"value":"1377515539"}],"name":"WEST HAVEN MARKET & GRILL","address":{"line":["2132 W WASHINGTON BLVD"],"city":"NEAR WEST SIDE","state":"IL","postalCode":"60612"},"position":{"latitude":41.8831944724,"longitude":-87.6804664902},"status":"active","meta":{"lastUpdated":"2023-03-24T19:59:31.392Z"}}
{"resourceType":"Location","id":"479","identifier":[{"value":"73C8965E-FF30-4ADC-9D0F-F26AFF568C02"},{"value":"1377515539"}],"name":"WEST LAWN FOODS","address":{"line":["5838 S PULASKI RD"],"city":"WEST ELSDON","state":"IL","postalCode":"60629"},"position":{"latitude":41.7866084095,"longitude":-87.7231300289},"status":"active","meta":{"lastUpdated":"2023-03-24T19:59:31.392Z"}}
{"resourceType":"Location","id":"480","identifier":[{"value":"6FC6BF84-30C4-47E1-800D-EA97CE58653B"},{"value":"1377515539"}],"name":"WHOLE FOODS MARKET","address":{"line":["3300 N ASHLAND AVE"],"city":"LAKE VIEW","state":"IL","postalCode":"60657"},"position":{"latitude":41.9415658578,"longitude":-87.6688604029},"status":"active","meta":{"lastUpdated":"2023-03-24T19:59:31.393Z"}}
{"resourceType":"Location","id":"481","identifier":[{"value":"5743A69C-D748-43A0-A040-2261DEB7F77E"},{"value":"1377515539"}],"name":"WHOLE FOODS MARKET","address":{"line":["6020 N CICERO AVE"],"city":"FOREST GLEN","state":"IL","postalCode":"60646"},"position":{"latitude":41.9904947718,"longitude":-87.7484774142},"status":"active","meta":{"lastUpdated":"2023-03-24T19:59:31.418Z"}}
{"resourceType":"Location","id":"482","identifier":[{"value":"19548921-DD4D-443D-8BDC-2C5969065366"},{"value":"1377515539"}],"name":"WHOLE FOODS MARKET","address":{"line":["1101 S CANAL ST"],"city":"NEAR WEST SIDE","state":"IL","postalCode":"60607"},"position":{"latitude":41.8688897111,"longitude":-87.6390989281},"status":"active","meta":{"lastUpdated":"2023-03-24T19:59:31.447Z"}}
{"resourceType":"Location","id":"483","identifier":[{"value":"979CD404-444B-4F39-B842-126EDE7B3D3C"},{"value":"1377515539"}],"name":"WHOLE FOODS MARKET","address":{"line":["3640 N HALSTED ST"],"city":"LAKE VIEW","state":"IL","postalCode":"60613"},"position":{"latitude":41.948519803,"longitude":-87.6496701249},"status":"active","meta":{"lastUpdated":"2023-03-24T19:59:31.456Z"}}
{"resourceType":"Location","id":"484","identifier":[{"value":"C7731A09-1484-4859-863E-70C87972FA80"},{"value":"1377515539"}],"name":"WHOLE FOODS MARKET","address":{"line":["30 W HURON ST"],"city":"NEAR NORTH SIDE","state":"IL","postalCode":"60610"},"position":{"latitude":41.8949686732,"longitude":-87.6293991787},"status":"active","meta":{"lastUpdated":"2023-03-24T19:59:31.496Z"}}
{"resourceType":"Location","id":"485","identifier":[{"value":"12320A97-DA0B-4E61-B45A-350D1FCD4FCA"},{"value":"1377515539"}],"name":"WHOLE FOODS MARKET","address":{"line":["1550 N KINGSBURY ST"],"city":"NEAR NORTH SIDE","state":"IL","postalCode":"60642"},"position":{"latitude":41.9093987878,"longitude":-87.6530506979},"status":"active","meta":{"lastUpdated":"2023-03-24T19:59:31.507Z"}}
{"resourceType":"Location","id":"486","identifier":[{"value":"54EC435B-440C-4C04-A57F-F12172CBA8D2"},{"value":"1377515539"}],"name":"WILLIAM'S PRODUCE","address":{"line":["6309 W GRAND AVE"],"city":"BELMONT CRAGIN","state":"IL","postalCode":"60639"},"position":{"latitude":41.9218942299,"longitude":-87.78339752},"status":"active","meta":{"lastUpdated":"2023-03-24T19:59:31.509Z"}}
{"resourceType":"Location","id":"487","identifier":[{"value":"73F26BFB-C9D8-4436-888E-68C31F66324F"},{"value":"1377515539"}],"name":"WINDY CITY INC","address":{"line":["324 S CICERO AVE"],"city":"AUSTIN","state":"IL","postalCode":"60644"},"position":{"latitude":41.8759443554,"longitude":-87.7452502275},"status":"active","meta":{"lastUpdated":"2023-03-24T19:59:31.529Z"}}
{"resourceType":"Location","id":"488","identifier":[{"value":"F750BEA7-7BB0-48F9-A32D-A3A357099254"},{"value":"1377515539"}],"name":"WORLD FRESH MARKET","address":{"line":["2434 W DEVON AVE"],"city":"WEST RIDGE","state":"IL","postalCode":"60659"},"position":{"latitude":41.997817926,"longitude":-87.6912518856},"status":"active","meta":{"lastUpdated":"2023-03-24T19:59:31.546Z"}}
{"resourceType":"Location","id":"489","identifier":[{"value":"17DFD7FA-4425-4C39-8659-7B63135B4496"},{"value":"1377515539"}],"name":"Z & S FOOD & LIQUOR","address":{"line":["1351 W 87TH ST"],"city":"AUBURN GRESHAM","state":"IL","postalCode":"60620"},"position":{"latitude":41.7357569772,"longitude":-87.6578282347},"status":"active","meta":{"lastUpdated":"2023-03-24T19:59:31.548Z"}}
{"resourceType":"Location","id":"490","identifier":[{"value":"3B1951BB-953F-428D-BE9E-83DC6E39753B"},{"value":"1377515539"}],"name":"ZEE DOLLAR AND FOOD","address":{"line":["375 E 75TH ST"],"city":"GREATER GRAND CROSSING","state":"IL","postalCode":"60619"},"position":{"latitude":41.758293315,"longitude":-87.6153541087},"status":"active","meta":{"lastUpdated":"2023-03-24T19:59:31.595Z"}}
{"resourceType":"Location","id":"491","identifier":[{"value":"3C5F9ECC-188E-4798-9466-4CBEDCCC75F8"},{"value":"1377515539"}],"name":"ZIAD CERTIFIED FOODS","address":{"line":["513 E 47TH ST"],"city":"GRAND BOULEVARD","state":"IL","postalCode":"60653"},"position":{"latitude":41.8093228701,"longitude":-87.6133355212},"status":"active","meta":{"lastUpdated":"2023-03-24T19:59:31.600Z"}}
{"resourceType":"Location","id":"493","identifier":[{"value":"90461D4D-B5E9-4810-9C8A-49EC611AF9B1"},{"value":"1377516320"}],"name":"WALGREENS # 05192","address":{"line":["2924 E 92ND ST"],"city":"SOUTH CHICAGO","state":"IL","postalCode":"60617"},"position":{"latitude":41.72833654,"longitude":-87.55286024},"status":"active","meta":{"lastUpdated":"2023-03-24T19:59:31.602Z"}}
{"resourceType":"Location","id":"494","identifier":[{"value":"4E89F188-52B0-46AB-AF90-B0F9D2CD8108"},{"value":"1377516320"}],"name":"WALGREENS #232","address":{"line":["3405 S DR MARTIN LUTHER KING JR DR"],"city":"DOUGLAS","state":"IL","postalCode":"60616"},"position":{"latitude":41.8326245,"longitude":-87.6168411},"status":"active","meta":{"lastUpdated":"2023-03-24T19:59:31.624Z"}}
{"resourceType":"Location","id":"495","identifier":[{"value":"264BBA42-11C8-4C6D-88ED-0A781C24BE7B"},{"value":"1377516320"}],"name":"WALGREENS #162","address":{"line":["1554 E 55TH ST"],"city":"HYDE PARK","state":"IL","postalCode":"60615"},"position":{"latitude":41.79529732,"longitude":-87.58782256},"status":"active","meta":{"lastUpdated":"2023-03-24T19:59:31.630Z"}}
{"resourceType":"Location","id":"496","identifier":[{"value":"879BD1E2-82EF-4663-AE98-E276B99B4A58"},{"value":"1377516320"}],"name":"WALGREENS #2073","address":{"line":["5401 S WENTWORTH AVE"],"city":"FULLER PARK","state":"IL","postalCode":"60609"},"position":{"latitude":41.79623488,"longitude":-87.63040492},"status":"active","meta":{"lastUpdated":"2023-03-24T19:59:31.643Z"}}
{"resourceType":"Location","id":"497","identifier":[{"value":"57CA4A07-E05E-456C-A7B6-3759028DA766"},{"value":"1377516320"}],"name":"WALGREENS #2923","address":{"line":["6330 S DR MARTIN LUTHER KING JR DR"],"city":"GREATER GRAND CROSSING","state":"IL","postalCode":"60637"},"position":{"latitude":41.77929761,"longitude":-87.61574988},"status":"active","meta":{"lastUpdated":"2023-03-24T19:59:31.688Z"}}
{"resourceType":"Location","id":"498","identifier":[{"value":"60EA44AF-9B4F-4661-BD50-6A627B64C684"},{"value":"1377516320"}],"name":"WALGREENS #11410","address":{"line":["1627 N PULASKI RD"],"city":"HUMBOLDT PARK","state":"IL","postalCode":"60639"},"position":{"latitude":41.91071448,"longitude":-87.72621042},"status":"active","meta":{"lastUpdated":"2023-03-24T19:59:31.689Z"}}
{"resourceType":"Location","id":"499","identifier":[{"value":"D6D19E67-5C84-4056-ADC9-2F646DE89153"},{"value":"1377516320"}],"name":"WALGREENS #226","address":{"line":["4005 W 26TH ST"],"city":"SOUTH LAWNDALE","state":"IL","postalCode":"60623"},"position":{"latitude":41.84414469,"longitude":-87.72477825},"status":"active","meta":{"lastUpdated":"2023-03-24T19:59:31.709Z"}}
{"resourceType":"Location","id":"500","identifier":[{"value":"3A56F7AD-E354-4F57-82D9-D2A448F01E5F"},{"value":"1377516320"}],"name":"WALMART","address":{"line":["1424 W 47TH ST"],"city":"NEW CITY","state":"IL","postalCode":"60609"},"position":{"latitude":41.80876829,"longitude":-87.66098821},"status":"active","meta":{"lastUpdated":"2023-03-24T19:59:31.724Z"}}
{"resourceType":"Location","id":"501","identifier":[{"value":"82DB97B1-2CC2-4107-8B30-68A831FC1916"},{"value":"1377516320"}],"name":"PETE'S FRESH SUPERMARKET","address":{"line":["2526 W CERMAK RD"],"city":"SOUTH LAWNDALE","state":"IL","postalCode":"60608"},"position":{"latitude":41.85210065,"longitude":-87.68905111},"status":"active","meta":{"lastUpdated":"2023-03-24T19:59:31.752Z"}}
{"resourceType":"Location","id":"502","identifier":[{"value":"B21E4A68-C135-4091-BDA2-4C00B4F0F61A"},{"value":"1377516320"}],"name":"SAVE-A-LOT # 866","address":{"line":["3939 W OGDEN AVE"],"city":"NORTH LAWNDALE","state":"IL","postalCode":"60623"},"position":{"latitude":41.85128849,"longitude":-87.72385084},"status":"active","meta":{"lastUpdated":"2023-03-24T19:59:31.752Z"}}
{"resourceType":"Location","id":"503","identifier":[{"value":"4B81D16B-4823-4496-A1B3-2D2E304C71A0"},{"value":"1377516320"}],"name":"MARIANO'S FRESH MARKET #8507","address":{"line":["5353 N ELSTON AVE"],"city":"JEFFERSON PARK","state":"IL","postalCode":"60630"},"position":{"latitude":41.97871026,"longitude":-87.75715377},"status":"active","meta":{"lastUpdated":"2023-03-24T19:59:31.780Z"}}
{"resourceType":"Location","id":"504","identifier":[{"value":"CD0A41BD-96FC-4D58-83DC-E6EE85681090"},{"value":"1377516320"}],"name":"WALGREENS # 06297","address":{"line":["6016 W 63RD ST"],"city":"CLEARING","state":"IL","postalCode":"60638"},"position":{"latitude":41.77795816,"longitude":-87.7722942},"status":"active","meta":{"lastUpdated":"2023-03-24T19:59:31.801Z"}}
{"resourceType":"Location","id":"505","identifier":[{"value":"26C68A1F-1C19-46B7-A2E3-0982CC2296DF"},{"value":"1377516320"}],"name":"WALGREENS #05034","address":{"line":["6315 S KEDZIE AVE"],"city":"CHICAGO LAWN","state":"IL","postalCode":"60629"},"position":{"latitude":41.77842134,"longitude":-87.70297606},"status":"active","meta":{"lastUpdated":"2023-03-24T19:59:31.802Z"}}
{"resourceType":"Location","id":"506","identifier":[{"value":"A10A1FBF-E165-4EA2-9508-21CE735C795C"},{"value":"1377516320"}],"name":"WALMART","address":{"line":["10900 S DOTY AVE W"],"city":"PULLMAN","state":"IL","postalCode":"60628"},"position":{"latitude":41.69631368,"longitude":-87.59663224},"status":"active","meta":{"lastUpdated":"2023-03-24T19:59:31.825Z"}}
{"resourceType":"Location","id":"507","identifier":[{"value":"7CF219C6-080C-4646-82AA-4F3CD4B99A03"},{"value":"1377516320"}],"name":"LOUIS' GROCERIES","address":{"line":["7604 S COTTAGE GROVE AVE"],"city":"GREATER GRAND CROSSING","state":"IL","postalCode":"60619"},"position":{"latitude":41.75655031,"longitude":-87.60548285},"status":"active","meta":{"lastUpdated":"2023-03-24T19:59:31.855Z"}}
{"resourceType":"Location","id":"example","text":{"status":"generated","div":"<div xmlns=\"http://www.w3.org/1999/xhtml\"><p><b>Generated Narrative</b></p><p><b>identifier</b>: id: B1-S.F2</p><p><b>status</b>: active</p><p><b>name</b>: South Wing, second floor</p><p><b>alias</b>: MC, SW, F2, University Medical Center, South Wing, second floor</p><p><b>description</b>: Second floor of the Old South Wing, formerly in use by Psychiatry</p><p><b>mode</b>: instance</p><p><b>telecom</b>: ph: 2328(WORK), fax: 2329(WORK), <a href=\"mailto:second-wing-admissions@sampleorg.com\">second-wing-admissions@sampleorg.com</a>, <a href=\"http://sampleorg.com/southwing\">http://sampleorg.com/southwing</a></p><p><b>address</b>: Galapagosweg 91, Building A San Francisco CA 94107 US (WORK)</p><p><b>physicalType</b>: <span title=\"Codes: {http://terminology.hl7.org/CodeSystem/location-physical-type wi}\">Wing</span></p><p><b>managingOrganization</b>: <a href=\"Organization-example.html\">Generated Summary: id: 12345678; active; name: University Medical Center; Phone: +1 555 234 3523, info@acme.org</a></p><p><b>endpoint</b>: <a href=\"http://example.org/fhir/Endpoint/example\">http://example.org/fhir/Endpoint/example</a></p></div>"},"identifier":[{"value":"B1-S.F2"}],"status":"active","name":"South Wing, second floor","alias":["MC, SW, F2","University Medical Center, South Wing, second floor"],"description":"Second floor of the Old South Wing, formerly in use by Psychiatry","mode":"instance","telecom":[{"system":"phone","value":"2328","use":"work"},{"system":"fax","value":"2329","use":"work"},{"system":"email","value":"second-wing-admissions@sampleorg.com"},{"system":"url","value":"http://sampleorg.com/southwing","use":"work"}],"address":{"use":"work","line":["Galapagosweg 91, Building A"],"city":"San Francisco","state":"CA","postalCode":"94107","country":"US"},"physicalType":{"coding":[{"system":"http://terminology.hl7.org/CodeSystem/location-physical-type","code":"wi","display":"Wing"}]},"managingOrganization":{"reference":"Organization/example"},"endpoint":[{"reference":"http://example.org/fhir/Endpoint/example"}],"meta":{"lastUpdated":"2023-03-24T19:59:31.856Z"}}
{"resourceType":"Location","id":"hl7east","meta":{"extension":[{"url":"http://hl7.org/fhir/StructureDefinition/instance-name","valueString":"HL7East Example"},{"url":"http://hl7.org/fhir/StructureDefinition/instance-description","valueMarkdown":"This is a HL7East example for the *US Core Location Profile*."}],"profile":["http://hl7.org/fhir/us/core/StructureDefinition/us-core-location"],"lastUpdated":"2023-03-24T19:59:31.857Z"},"text":{"status":"generated","div":"<div xmlns=\"http://www.w3.org/1999/xhtml\"><p><b>Generated Narrative</b></p><div style=\"display: inline-block; background-color: #d9e0e7; padding: 6px; margin: 4px; border: 1px solid #8da1b4; border-radius: 5px; line-height: 60%\"><p style=\"margin-bottom: 0px\">Resource \"hl7east\" </p><p style=\"margin-bottom: 0px\">Profile: <a href=\"StructureDefinition-us-core-location.html\">US Core Location Profile</a></p></div><p><b>identifier</b>: id: 29</p><p><b>status</b>: active</p><p><b>name</b>: Health Level Seven International - Amherst</p><p><b>description</b>: HL7 Headquarters - East</p><p><b>telecom</b>: ph: (+1) 734-677-7777</p><p><b>address</b>: 3300 Washtenaw Avenue, Suite 227 Amherst MA 01002 USA </p><h3>Positions</h3><table class=\"grid\"><tr><td>-</td><td><b>Longitude</b></td><td><b>Latitude</b></td></tr><tr><td>*</td><td>-72.519854</td><td>42.373222</td></tr></table><p><b>managingOrganization</b>: <span>: Health Level Seven International</span></p></div>"},"identifier":[{"system":"http://www.acme.org/location","value":"29"}],"status":"active","name":"Health Level Seven International - Amherst","description":"HL7 Headquarters - East","telecom":[{"system":"phone","value":"(+1) 734-677-7777"}],"address":{"line":["3300 Washtenaw Avenue, Suite 227"],"city":"Amherst","state":"MA","postalCode":"01002","country":"USA"},"position":{"longitude":-72.519854,"latitude":42.373222},"managingOrganization":{"display":"Health Level Seven International"}}
{"resourceType":"Location","id":"hospital","meta":{"extension":[{"url":"http://hl7.org/fhir/StructureDefinition/instance-name","valueString":"Hospital Location"},{"url":"http://hl7.org/fhir/StructureDefinition/instance-description","valueMarkdown":"This is an example hospital location for the *US Core Location Profile*."}],"profile":["http://hl7.org/fhir/us/core/StructureDefinition/us-core-location"],"lastUpdated":"2023-03-24T19:59:31.898Z"},"text":{"status":"generated","div":"<div xmlns=\"http://www.w3.org/1999/xhtml\"><p><b>Generated Narrative</b></p><div style=\"display: inline-block; background-color: #d9e0e7; padding: 6px; margin: 4px; border: 1px solid #8da1b4; border-radius: 5px; line-height: 60%\"><p style=\"margin-bottom: 0px\">Resource \"hospital\" </p><p style=\"margin-bottom: 0px\">Profile: <a href=\"StructureDefinition-us-core-location.html\">US Core Location Profile</a></p></div><p><b>status</b>: active</p><p><b>name</b>: Holy Family Hospital</p><p><b>telecom</b>: ph: 9786870156</p><p><b>address</b>: 70 EAST STREET METHUEN MA 01844 US </p><p><b>managingOrganization</b>: <a href=\"http://example.org/fhir/Organization/holy-healthcare\">http://example.org/fhir/Organization/holy-healthcare: Holy Healthcare</a></p></div>"},"status":"active","name":"Holy Family Hospital","telecom":[{"system":"phone","value":"9786870156"}],"address":{"line":["70 EAST STREET"],"city":"METHUEN","state":"MA","postalCode":"01844","country":"US"},"managingOrganization":{"reference":"http://example.org/fhir/Organization/holy-healthcare","display":"Holy Healthcare"}}
